# 
# Header Description:
# 
# Version: v3.0.6.1 Platform: 12 Manufacturer: Xiaomi Model: 2201116PI
# 
# Raw,utcTimeMillis,TimeNanos,LeapSecond,TimeUncertaintyNanos,FullBiasNanos,BiasNanos,BiasUncertaintyNanos,DriftNanosPerSecond,DriftUncertaintyNanosPerSecond,HardwareClockDiscontinuityCount,Svid,TimeOffsetNanos,State,ReceivedSvTimeNanos,ReceivedSvTimeUncertaintyNanos,Cn0DbHz,PseudorangeRateMetersPerSecond,PseudorangeRateUncertaintyMetersPerSecond,AccumulatedDeltaRangeState,AccumulatedDeltaRangeMeters,AccumulatedDeltaRangeUncertaintyMeters,CarrierFrequencyHz,CarrierCycles,CarrierPhase,CarrierPhaseUncertainty,MultipathIndicator,SnrInDb,ConstellationType,AgcDb,BasebandCn0DbHz,FullInterSignalBiasNanos,FullInterSignalBiasUncertaintyNanos,SatelliteInterSignalBiasNanos,SatelliteInterSignalBiasUncertaintyNanos,CodeType,ChipsetElapsedRealtimeNanos
# 
# UncalAccel,utcTimeMillis,elapsedRealtimeNanos,UncalAccelXMps2,UncalAccelYMps2,UncalAccelZMps2,BiasXMps2,BiasYMps2,BiasZMps2
# 
# Accel,utcTimeMillis,elapsedRealtimeNanos,AccelXMps2,AccelYMps2,AccelZMps2
# 
# UncalGyro,utcTimeMillis,elapsedRealtimeNanos,UncalGyroXRadPerSec,UncalGyroYRadPerSec,UncalGyroZRadPerSec,DriftXRadPerSec,DriftYRadPerSec,DriftZRadPerSec
# 
# Gyro,utcTimeMillis,elapsedRealtimeNanos,GyroXRadPerSec,GyroYRadPerSec,GyroZRadPerSec
# 
# UncalMag,utcTimeMillis,elapsedRealtimeNanos,UncalMagXMicroT,UncalMagYMicroT,UncalMagZMicroT,BiasXMicroT,BiasYMicroT,BiasZMicroT
# 
# Mag,utcTimeMillis,elapsedRealtimeNanos,MagXMicroT,MagYMicroT,MagZMicroT
# 
# OrientationDeg,utcTimeMillis,elapsedRealtimeNanos,yawDeg,rollDeg,pitchDeg
# 
# Fix,Provider,LatitudeDegrees,LongitudeDegrees,AltitudeMeters,SpeedMps,AccuracyMeters,BearingDegrees,UnixTimeMillis,SpeedAccuracyMps,BearingAccuracyDegrees,elapsedRealtimeNanos,VerticalAccuracyMeters
# 
# Nav,Svid,Type,Status,MessageId,Sub-messageId,Data(Bytes)
# 
# Status,UnixTimeMillis,SignalCount,SignalIndex,ConstellationType,Svid,CarrierFrequencyHz,Cn0DbHz,AzimuthDegrees,ElevationDegrees,UsedInFix,HasAlmanacData,HasEphemerisData,BasebandCn0DbHz
# 
Status,,49,0,1,1,1575420030,15.70,56.0,30.0,0,1,0,12.2
Status,,49,1,1,6,1575420030,24.00,188.0,27.0,1,1,0,20.5
Status,,49,2,1,7,1575420030,36.10,122.0,53.0,1,1,0,32.6
Status,,49,3,1,9,1575420030,16.10,169.0,13.0,1,1,0,12.6
Status,,49,4,1,13,1575420030,14.50,297.0,24.0,1,1,0,11.0
Status,,49,5,1,14,1575420030,18.50,359.0,37.0,1,1,0,15.0
Status,,49,6,1,17,1575420030,17.20,310.0,64.0,1,1,0,13.700001
Status,,49,7,1,19,1575420030,33.00,255.0,49.0,1,1,0,29.5
Status,,49,8,1,30,1575420030,20.70,32.0,77.0,1,1,0,17.2
Status,,49,9,1,3,1575420030,0.00,112.0,1.0,0,1,0,0.0
Status,,49,10,1,21,1575420030,0.00,41.0,8.0,0,1,0,0.0
Status,,49,11,4,194,1575420030,0.00,72.0,26.0,0,1,0,0.0
Status,,49,12,4,195,1575420030,0.00,56.0,27.0,0,1,0,0.0
Status,,49,13,3,12,1601437440,17.20,72.0,33.0,1,1,0,13.200001
Status,,49,14,3,24,1603124990,21.50,195.0,60.0,1,1,0,17.5
Status,,49,15,3,23,1603687550,14.40,34.0,62.0,1,1,0,10.4
Status,,49,16,3,3,1604812540,22.90,258.0,13.0,1,1,0,18.9
Status,,49,17,3,2,1599750020,0.00,208.0,10.0,0,1,0,0.0
Status,,49,18,3,13,1600875010,0.00,12.0,35.0,0,1,0,0.0
Status,,49,19,5,36,1561097980,19.00,356.0,47.0,0,1,0,14.7
Status,,49,20,5,30,1561097980,20.60,26.0,62.0,0,1,0,16.3
Status,,49,21,5,29,1561097980,32.30,226.0,56.0,0,1,0,28.0
Status,,49,22,5,27,1561097980,15.90,35.0,12.0,0,1,0,11.599999
Status,,49,23,5,16,1561097980,33.60,155.0,39.0,1,1,0,29.3
Status,,49,24,5,13,1561097980,33.40,147.0,27.0,1,1,0,29.100002
Status,,49,25,5,10,1561097980,16.80,11.0,46.0,0,1,0,12.499999
Status,,49,26,5,9,1561097980,27.50,160.0,62.0,1,1,0,23.2
Status,,49,27,5,8,1561097980,31.60,133.0,26.0,1,1,0,27.3
Status,,49,28,5,7,1561097980,16.70,29.0,38.0,1,1,0,12.400001
Status,,49,29,5,6,1561097980,27.70,155.0,44.0,1,1,0,23.400002
Status,,49,30,5,5,1561097980,22.50,237.0,60.0,1,1,0,18.2
Status,,49,31,5,3,1561097980,32.70,112.0,51.0,0,1,0,28.400002
Status,,49,32,5,2,1561097980,24.80,165.0,72.0,0,1,0,20.5
Status,,49,33,5,1,1561097980,0.00,96.0,16.0,0,1,0,0.0
Status,,49,34,5,19,1561097980,0.00,209.0,13.0,0,1,0,0.0
Status,,49,35,5,22,1561097980,0.00,258.0,5.0,0,1,0,0.0
Status,,49,36,5,37,1561097980,0.00,118.0,5.0,0,1,0,0.0
Status,,49,37,5,39,1561097980,0.00,155.0,29.0,0,1,0,0.0
Status,,49,38,5,40,1561097980,0.00,30.0,26.0,0,1,0,0.0
Status,,49,39,5,61,1561097980,0.00,109.0,52.0,0,1,0,0.0
Status,,49,40,6,1,1575420030,16.30,348.0,36.0,1,1,0,11.999999
Status,,49,41,6,13,1575420030,12.50,44.0,19.0,1,1,0,8.2
Status,,49,42,6,19,1575420030,21.60,209.0,36.0,1,1,0,17.3
Status,,49,43,6,21,1575420030,14.80,48.0,32.0,1,1,0,10.5
Status,,49,44,6,26,1575420030,38.20,97.0,59.0,1,1,0,33.9
Status,,49,45,6,33,1575420030,31.30,181.0,40.0,1,1,0,27.0
Status,,49,46,6,4,1575420030,0.00,279.0,27.0,0,1,0,0.0
Status,,49,47,6,27,1575420030,0.00,89.0,1.0,0,1,0,0.0
Status,,49,48,6,31,1575420030,0.00,300.0,6.0,0,1,0,0.0
Raw,1682137081412,80527596000000,18,,-1366091771816463030,-0.81512451171875,75.3970816731453,-5.438402174132317,21.26520096060831,17,6,0.0,16399,533899336536958,46,24.0,-639.1679077148438,0.8495000004768372,16,0.0,0.0,1575420030,,,,0,,1,4.84,20.5,0.0,0.0,,,C,80179400540245
Raw,1682137081412,80527596000000,18,,-1366091771816463030,-0.81512451171875,75.3970816731453,-5.438402174132317,21.26520096060831,17,7,0.0,16399,533899343064611,12,36.1,256.39398193359375,0.04649757221341133,16,0.0,0.0,1575420030,,,,0,,1,4.84,32.6,0.0,0.0,,,C,80179400540245
Raw,1682137081412,80527596000000,18,,-1366091771816463030,-0.81512451171875,75.3970816731453,-5.438402174132317,21.26520096060831,17,19,0.0,16399,533899341004720,16,33.0,-222.2838592529297,0.05640523508191109,16,0.0,0.0,1575420030,,,,0,,1,4.84,29.5,0.0,0.0,,,C,80179400540245
Raw,1682137081412,80527596000000,18,,-1366091771816463030,-0.81512451171875,75.3970816731453,-5.438402174132317,21.26520096060831,17,24,0.0,49359,26281346769490,70,21.5,-411.2708435058594,1.7755000591278076,16,0.0,0.0,1603124990,,,,0,,3,-0.12,17.5,3824.20068359375,19.82839584350586,,,C,80179400540245
Raw,1682137081412,80527596000000,18,,-1366091771816463030,-0.81512451171875,75.3970816731453,-5.438402174132317,21.26520096060831,17,3,0.0,49359,26281334960429,61,22.9,282.57574462890625,1.002500057220459,16,0.0,0.0,1604812540,,,,0,,3,-0.12,18.9,3824.20068359375,19.82839584350586,,,C,80179400540245
Raw,1682137081412,80527596000000,18,,-1366091771816463030,-0.81512451171875,75.3970816731453,-5.438402174132317,21.26520096060831,17,29,0.0,16399,533885337981470,17,32.3,-290.7552490234375,0.03393927961587906,16,0.0,0.0,1561097980,,,,0,,5,1.58,27.999999999999996,-1553.0126953125,19.05495262145996,,,I,80179400540245
Raw,1682137081412,80527596000000,18,,-1366091771816463030,-0.81512451171875,75.3970816731453,-5.438402174132317,21.26520096060831,17,16,0.0,16399,533885287109114,16,33.6,201.9166259765625,0.047537390142679214,16,0.0,0.0,1561097980,,,,0,,5,1.58,29.3,-1553.0126953125,19.05495262145996,,,I,80179400540245
Raw,1682137081412,80527596000000,18,,-1366091771816463030,-0.81512451171875,75.3970816731453,-5.438402174132317,21.26520096060831,17,13,0.0,16399,533885283086952,16,33.4,-297.24407958984375,0.05353739112615585,16,0.0,0.0,1561097980,,,,0,,5,1.58,29.099999999999998,-1553.0126953125,19.05495262145996,,,I,80179400540245
Raw,1682137081412,80527596000000,18,,-1366091771816463030,-0.81512451171875,75.3970816731453,-5.438402174132317,21.26520096060831,17,9,0.0,16399,533885292971008,31,27.5,117.27851867675781,0.6754999756813049,16,0.0,0.0,1561097980,,,,0,,5,1.58,23.2,-1553.0126953125,19.05495262145996,,,I,80179400540245
Raw,1682137081412,80527596000000,18,,-1366091771816463030,-0.81512451171875,75.3970816731453,-5.438402174132317,21.26520096060831,17,8,0.0,16399,533885282954789,19,31.6,-334.6395568847656,0.06644453853368759,16,0.0,0.0,1561097980,,,,0,,5,1.58,27.3,-1553.0126953125,19.05495262145996,,,I,80179400540245
Raw,1682137081412,80527596000000,18,,-1366091771816463030,-0.81512451171875,75.3970816731453,-5.438402174132317,21.26520096060831,17,6,0.0,16399,533885287807375,31,27.7,193.1917266845703,0.6829999685287476,16,0.0,0.0,1561097980,,,,0,,5,1.58,23.4,-1553.0126953125,19.05495262145996,,,I,80179400540245
Raw,1682137081412,80527596000000,18,,-1366091771816463030,-0.81512451171875,75.3970816731453,-5.438402174132317,21.26520096060831,17,2,0.0,16399,533885291487638,46,24.8,-7.883220672607422,7.566299915313721,16,0.0,0.0,1561097980,,,,0,,5,1.58,20.5,-1553.0126953125,19.05495262145996,,,I,80179400540245
Raw,1682137081412,80527596000000,18,,-1366091771816463030,-0.81512451171875,75.3970816731453,-5.438402174132317,21.26520096060831,17,19,0.0,23567,533899325058645,70,21.6,382.8994140625,1.7920000553131104,16,0.0,0.0,1575420030,,,,0,,6,5.1,17.3,-1481.9332275390625,17.351186752319336,,,C,80179400540245
Raw,1682137081412,80527596000000,18,,-1366091771816463030,-0.81512451171875,75.3970816731453,-5.438402174132317,21.26520096060831,17,26,0.0,23567,533899332789159,11,38.2,-80.6314697265625,0.026198336854577065,16,0.0,0.0,1575420030,,,,0,,6,5.1,33.900000000000006,-1481.9332275390625,17.351186752319336,,,C,80179400540245
Raw,1682137081412,80527596000000,18,,-1366091771816463030,-0.81512451171875,75.3970816731453,-5.438402174132317,21.26520096060831,17,33,0.0,23567,533899328583880,19,31.3,-477.910888671875,0.03409552574157715,16,0.0,0.0,1575420030,,,,0,,6,5.1,27.0,-1481.9332275390625,17.351186752319336,,,C,80179400540245
Fix,GPS,12.9853760500,80.2391768700,-85.69277954101562,0.0,5.078562,,1682137082000,0.080622576,,80179987011078,5.770262
Status,1682137082000,49,0,1,1,1575420030,15.70,56.0,30.0,0,1,0,12.2
Status,1682137082000,49,1,1,6,1575420030,25.50,188.0,27.0,1,1,0,22.0
Status,1682137082000,49,2,1,7,1575420030,34.30,122.0,53.0,1,1,0,30.8
Status,1682137082000,49,3,1,9,1575420030,16.10,169.0,13.0,1,1,0,12.6
Status,1682137082000,49,4,1,13,1575420030,14.50,297.0,24.0,0,1,0,11.0
Status,1682137082000,49,5,1,14,1575420030,18.50,359.0,37.0,1,1,0,15.0
Status,1682137082000,49,6,1,17,1575420030,17.20,310.0,64.0,1,1,0,13.700001
Status,1682137082000,49,7,1,19,1575420030,31.90,255.0,49.0,1,1,0,28.4
Status,1682137082000,49,8,1,30,1575420030,20.70,32.0,77.0,1,1,0,17.2
Status,1682137082000,49,9,1,3,1575420030,0.00,112.0,1.0,0,1,0,0.0
Status,1682137082000,49,10,1,21,1575420030,0.00,41.0,8.0,0,1,0,0.0
Status,1682137082000,49,11,4,194,1575420030,0.00,72.0,26.0,0,1,0,0.0
Status,1682137082000,49,12,4,195,1575420030,0.00,56.0,27.0,0,1,0,0.0
Status,1682137082000,49,13,3,12,1601437440,17.20,72.0,33.0,1,1,0,13.200001
Status,1682137082000,49,14,3,24,1603124990,21.50,195.0,60.0,1,1,0,17.5
Status,1682137082000,49,15,3,23,1603687550,14.40,34.0,62.0,0,1,0,10.4
Status,1682137082000,49,16,3,3,1604812540,22.90,258.0,13.0,1,1,0,18.9
Status,1682137082000,49,17,3,2,1599750020,0.00,208.0,10.0,0,1,0,0.0
Status,1682137082000,49,18,3,13,1600875010,0.00,12.0,35.0,0,1,0,0.0
Status,1682137082000,49,19,5,36,1561097980,19.00,356.0,47.0,0,1,0,14.7
Status,1682137082000,49,20,5,30,1561097980,20.60,26.0,62.0,0,1,0,16.3
Status,1682137082000,49,21,5,29,1561097980,30.10,226.0,56.0,0,1,0,25.8
Status,1682137082000,49,22,5,27,1561097980,15.90,35.0,12.0,0,1,0,11.599999
Status,1682137082000,49,23,5,16,1561097980,33.80,155.0,39.0,1,1,0,29.5
Status,1682137082000,49,24,5,13,1561097980,32.00,147.0,27.0,1,1,0,27.7
Status,1682137082000,49,25,5,10,1561097980,16.80,11.0,46.0,0,1,0,12.499999
Status,1682137082000,49,26,5,9,1561097980,29.20,160.0,62.0,1,1,0,24.900002
Status,1682137082000,49,27,5,8,1561097980,28.20,133.0,26.0,1,1,0,23.900002
Status,1682137082000,49,28,5,7,1561097980,16.70,29.0,38.0,1,1,0,12.400001
Status,1682137082000,49,29,5,6,1561097980,26.50,155.0,44.0,1,1,0,22.2
Status,1682137082000,49,30,5,5,1561097980,25.80,237.0,60.0,1,1,0,21.5
Status,1682137082000,49,31,5,3,1561097980,25.50,112.0,51.0,0,1,0,21.2
Status,1682137082000,49,32,5,2,1561097980,24.80,165.0,72.0,0,1,0,20.5
Status,1682137082000,49,33,5,1,1561097980,0.00,96.0,16.0,0,1,0,0.0
Status,1682137082000,49,34,5,19,1561097980,0.00,209.0,13.0,0,1,0,0.0
Status,1682137082000,49,35,5,22,1561097980,0.00,258.0,5.0,0,1,0,0.0
Status,1682137082000,49,36,5,37,1561097980,0.00,118.0,5.0,0,1,0,0.0
Status,1682137082000,49,37,5,39,1561097980,0.00,155.0,29.0,0,1,0,0.0
Status,1682137082000,49,38,5,40,1561097980,0.00,30.0,26.0,0,1,0,0.0
Status,1682137082000,49,39,5,61,1561097980,0.00,109.0,52.0,0,1,0,0.0
Status,1682137082000,49,40,6,1,1575420030,16.30,348.0,36.0,0,1,0,11.999999
Status,1682137082000,49,41,6,13,1575420030,12.50,44.0,19.0,1,1,0,8.2
Status,1682137082000,49,42,6,19,1575420030,21.60,209.0,36.0,1,1,0,17.3
Status,1682137082000,49,43,6,21,1575420030,14.80,48.0,32.0,0,1,0,10.5
Status,1682137082000,49,44,6,26,1575420030,37.30,97.0,59.0,1,1,0,33.0
Status,1682137082000,49,45,6,33,1575420030,31.60,181.0,40.0,1,1,0,27.3
Status,1682137082000,49,46,6,4,1575420030,0.00,279.0,27.0,0,1,0,0.0
Status,1682137082000,49,47,6,27,1575420030,0.00,89.0,1.0,0,1,0,0.0
Status,1682137082000,49,48,6,31,1575420030,0.00,300.0,6.0,0,1,0,0.0
Raw,1682137082412,80528596000000,18,,-1366091771816463043,-0.4215068817138672,61.66684033814818,-5.185062938870038,10.781573691212827,17,6,0.0,16399,533900336539038,35,25.5,-639.9385986328125,0.7894999980926514,16,0.0,0.0,1575420030,,,,0,,1,4.33,22.0,0.0,0.0,,,C,80180393971494
Raw,1682137082412,80528596000000,18,,-1366091771816463043,-0.4215068817138672,61.66684033814818,-5.185062938870038,10.781573691212827,17,7,0.0,16399,533900343063775,14,34.3,255.2118682861328,0.04849565401673317,16,0.0,0.0,1575420030,,,,0,,1,4.33,30.799999999999997,0.0,0.0,,,C,80180393971494
Raw,1682137082412,80528596000000,18,,-1366091771816463043,-0.4215068817138672,61.66684033814818,-5.185062938870038,10.781573691212827,17,19,0.0,16399,533900341005459,17,31.9,-223.4833984375,0.05779437720775604,16,0.0,0.0,1575420030,,,,0,,1,4.33,28.4,0.0,0.0,,,C,80180393971494
Raw,1682137082412,80528596000000,18,,-1366091771816463043,-0.4215068817138672,61.66684033814818,-5.185062938870038,10.781573691212827,17,29,0.0,16399,533886337982478,24,30.1,-291.9053955078125,0.09470056742429733,16,0.0,0.0,1561097980,,,,0,,5,1.13,25.8,-1552.9918212890625,19.0689754486084,,,I,80180393971494
Raw,1682137082412,80528596000000,18,,-1366091771816463043,-0.4215068817138672,61.66684033814818,-5.185062938870038,10.781573691212827,17,16,0.0,16399,533886287108434,16,33.8,200.6649932861328,0.047537390142679214,16,0.0,0.0,1561097980,,,,0,,5,1.13,29.499999999999996,-1552.9918212890625,19.0689754486084,,,I,80180393971494
Raw,1682137082412,80528596000000,18,,-1366091771816463043,-0.4215068817138672,61.66684033814818,-5.185062938870038,10.781573691212827,17,13,0.0,16399,533886283087945,19,32.0,-298.536865234375,0.06494453549385071,16,0.0,0.0,1561097980,,,,0,,5,1.13,27.7,-1552.9918212890625,19.0689754486084,,,I,80180393971494
Raw,1682137082412,80528596000000,18,,-1366091771816463043,-0.4215068817138672,61.66684033814818,-5.185062938870038,10.781573691212827,17,9,0.0,16399,533886292970599,27,29.2,116.24150085449219,0.5855000019073486,16,0.0,0.0,1561097980,,,,0,,5,1.13,24.9,-1552.9918212890625,19.0689754486084,,,I,80180393971494
Raw,1682137082412,80528596000000,18,,-1366091771816463043,-0.4215068817138672,61.66684033814818,-5.185062938870038,10.781573691212827,17,8,0.0,16399,533886282955885,31,28.2,-335.2049255371094,0.640500009059906,16,0.0,0.0,1561097980,,,,0,,5,1.13,23.9,-1552.9918212890625,19.0689754486084,,,I,80180393971494
Raw,1682137082412,80528596000000,18,,-1366091771816463043,-0.4215068817138672,61.66684033814818,-5.185062938870038,10.781573691212827,17,6,0.0,16399,533886287806721,35,26.5,192.41397094726562,0.7429999709129333,16,0.0,0.0,1561097980,,,,0,,5,1.13,22.2,-1552.9918212890625,19.0689754486084,,,I,80180393971494
Raw,1682137082412,80528596000000,18,,-1366091771816463043,-0.4215068817138672,61.66684033814818,-5.185062938870038,10.781573691212827,17,5,0.0,16399,533886290276503,40,25.8,-0.4993027150630951,6.620699882507324,16,0.0,0.0,1561097980,,,,0,,5,1.13,21.5,-1552.9918212890625,19.0689754486084,,,I,80180393971494
Raw,1682137082412,80528596000000,18,,-1366091771816463043,-0.4215068817138672,61.66684033814818,-5.185062938870038,10.781573691212827,17,3,0.0,16399,533886289819712,40,25.5,-6.5293426513671875,6.592199802398682,16,0.0,0.0,1561097980,,,,0,,5,1.13,21.2,-1552.9918212890625,19.0689754486084,,,I,80180393971494
Raw,1682137082412,80528596000000,18,,-1366091771816463043,-0.4215068817138672,61.66684033814818,-5.185062938870038,10.781573691212827,17,26,0.0,23567,533900332789411,11,37.3,-81.79740142822266,0.026198336854577065,16,0.0,0.0,1575420030,,,,0,,6,4.57,33.0,-1481.9332275390625,17.351186752319336,,,C,80180393971494
Raw,1682137082412,80528596000000,18,,-1366091771816463043,-0.4215068817138672,61.66684033814818,-5.185062938870038,10.781573691212827,17,33,0.0,23567,533900328585467,19,31.6,-479.1241455078125,0.03409552574157715,16,0.0,0.0,1575420030,,,,0,,6,4.57,27.3,-1481.9332275390625,17.351186752319336,,,C,80180393971494
Fix,GPS,12.9853789000,80.2391792300,-85.69085693359375,0.0,5.018759,,1682137083000,0.080622576,,80180987140609,5.6769156
Status,1682137083000,49,0,1,1,1575420030,15.70,56.0,30.0,0,1,0,12.2
Status,1682137083000,49,1,1,6,1575420030,26.00,188.0,27.0,1,1,0,22.5
Status,1682137083000,49,2,1,7,1575420030,34.10,122.0,53.0,1,1,0,30.599998
Status,1682137083000,49,3,1,9,1575420030,16.10,169.0,13.0,1,1,0,12.6
Status,1682137083000,49,4,1,13,1575420030,14.50,297.0,24.0,0,1,0,11.0
Status,1682137083000,49,5,1,14,1575420030,18.50,359.0,37.0,1,1,0,15.0
Status,1682137083000,49,6,1,17,1575420030,17.20,310.0,64.0,1,1,0,13.700001
Status,1682137083000,49,7,1,19,1575420030,30.50,255.0,49.0,1,1,0,27.0
Status,1682137083000,49,8,1,30,1575420030,20.70,32.0,77.0,1,1,0,17.2
Status,1682137083000,49,9,1,3,1575420030,0.00,112.0,1.0,0,1,0,0.0
Status,1682137083000,49,10,1,21,1575420030,0.00,41.0,8.0,0,1,0,0.0
Status,1682137083000,49,11,4,194,1575420030,0.00,72.0,26.0,0,1,0,0.0
Status,1682137083000,49,12,4,195,1575420030,0.00,56.0,27.0,0,1,0,0.0
Status,1682137083000,49,13,3,12,1601437440,17.20,72.0,33.0,1,1,0,13.200001
Status,1682137083000,49,14,3,24,1603124990,22.30,195.0,60.0,1,1,0,18.3
Status,1682137083000,49,15,3,23,1603687550,14.40,34.0,62.0,0,1,0,10.4
Status,1682137083000,49,16,3,3,1604812540,20.10,258.0,13.0,1,1,0,16.1
Status,1682137083000,49,17,3,2,1599750020,0.00,208.0,10.0,0,1,0,0.0
Status,1682137083000,49,18,3,13,1600875010,0.00,12.0,35.0,0,1,0,0.0
Status,1682137083000,49,19,5,36,1561097980,19.00,356.0,47.0,0,1,0,14.7
Status,1682137083000,49,20,5,30,1561097980,20.60,26.0,62.0,0,1,0,16.3
Status,1682137083000,49,21,5,29,1561097980,30.20,226.0,56.0,0,1,0,25.900002
Status,1682137083000,49,22,5,27,1561097980,15.90,35.0,12.0,0,1,0,11.599999
Status,1682137083000,49,23,5,16,1561097980,34.40,155.0,39.0,1,1,0,30.100002
Status,1682137083000,49,24,5,13,1561097980,31.30,147.0,27.0,1,1,0,27.0
Status,1682137083000,49,25,5,10,1561097980,16.80,11.0,46.0,0,1,0,12.499999
Status,1682137083000,49,26,5,9,1561097980,29.20,160.0,62.0,1,1,0,24.900002
Status,1682137083000,49,27,5,8,1561097980,26.50,133.0,26.0,1,1,0,22.2
Status,1682137083000,49,28,5,7,1561097980,16.70,29.0,38.0,1,1,0,12.400001
Status,1682137083000,49,29,5,6,1561097980,27.70,155.0,44.0,1,1,0,23.400002
Status,1682137083000,49,30,5,5,1561097980,25.80,237.0,60.0,1,1,0,21.5
Status,1682137083000,49,31,5,3,1561097980,25.50,112.0,51.0,0,1,0,21.2
Status,1682137083000,49,32,5,2,1561097980,24.80,165.0,72.0,0,1,0,20.5
Status,1682137083000,49,33,5,1,1561097980,0.00,96.0,16.0,0,1,0,0.0
Status,1682137083000,49,34,5,19,1561097980,0.00,209.0,13.0,0,1,0,0.0
Status,1682137083000,49,35,5,22,1561097980,0.00,258.0,5.0,0,1,0,0.0
Status,1682137083000,49,36,5,37,1561097980,0.00,118.0,5.0,0,1,0,0.0
Status,1682137083000,49,37,5,39,1561097980,0.00,155.0,29.0,0,1,0,0.0
Status,1682137083000,49,38,5,40,1561097980,0.00,30.0,26.0,0,1,0,0.0
Status,1682137083000,49,39,5,61,1561097980,0.00,109.0,52.0,0,1,0,0.0
Status,1682137083000,49,40,6,1,1575420030,16.30,348.0,36.0,0,1,0,11.999999
Status,1682137083000,49,41,6,13,1575420030,12.50,44.0,19.0,1,1,0,8.2
Status,1682137083000,49,42,6,19,1575420030,21.60,209.0,36.0,1,1,0,17.3
Status,1682137083000,49,43,6,21,1575420030,14.80,48.0,32.0,0,1,0,10.5
Status,1682137083000,49,44,6,26,1575420030,37.10,97.0,59.0,1,1,0,32.8
Status,1682137083000,49,45,6,33,1575420030,29.20,181.0,40.0,1,1,0,24.900002
Status,1682137083000,49,46,6,4,1575420030,0.00,279.0,27.0,0,1,0,0.0
Status,1682137083000,49,47,6,27,1575420030,0.00,89.0,1.0,0,1,0,0.0
Status,1682137083000,49,48,6,31,1575420030,0.00,300.0,6.0,0,1,0,0.0
Raw,1682137083412,80529596000000,18,,-1366091771816463054,-0.7165870666503906,64.41379082389176,-9.540016277015985,14.295229844450992,17,6,0.0,16399,533901336541227,35,26.0,-643.506591796875,0.7294999957084656,16,0.0,0.0,1575420030,,,,0,,1,2.64,22.5,0.0,0.0,,,C,80181399253942
Raw,1682137083412,80529596000000,18,,-1366091771816463054,-0.7165870666503906,64.41379082389176,-9.540016277015985,14.295229844450992,17,7,0.0,16399,533901343062928,14,34.1,252.01824951171875,0.04849565401673317,16,0.0,0.0,1575420030,,,,0,,1,2.64,30.6,0.0,0.0,,,C,80181399253942
Raw,1682137083412,80529596000000,18,,-1366091771816463054,-0.7165870666503906,64.41379082389176,-9.540016277015985,14.295229844450992,17,19,0.0,16399,533901341006207,19,30.5,-226.7071990966797,0.06770867854356766,16,0.0,0.0,1575420030,,,,0,,1,2.64,27.0,0.0,0.0,,,C,80181399253942
Raw,1682137083412,80529596000000,18,,-1366091771816463054,-0.7165870666503906,64.41379082389176,-9.540016277015985,14.295229844450992,17,24,0.0,49359,26283346772193,61,22.3,-413.31854248046875,1.695500135421753,16,0.0,0.0,1603124990,,,,0,,3,-1.17,18.3,3824.19287109375,19.85887336730957,,,C,80181399253942
Raw,1682137083412,80529596000000,18,,-1366091771816463054,-0.7165870666503906,64.41379082389176,-9.540016277015985,14.295229844450992,17,3,0.0,49359,26283334958640,80,20.1,278.335205078125,1.877500057220459,16,0.0,0.0,1604812540,,,,0,,3,-1.17,16.1,3824.19287109375,19.85887336730957,,,C,80181399253942
Raw,1682137083412,80529596000000,18,,-1366091771816463054,-0.7165870666503906,64.41379082389176,-9.540016277015985,14.295229844450992,17,29,0.0,16399,533887337983445,24,30.2,-295.1587829589844,0.09470056742429733,16,0.0,0.0,1561097980,,,,0,,5,0.36,25.9,-1552.9632568359375,19.077913284301758,,,I,80181399253942
Raw,1682137083412,80529596000000,18,,-1366091771816463054,-0.7165870666503906,64.41379082389176,-9.540016277015985,14.295229844450992,17,16,0.0,16399,533887287107768,14,34.4,197.38856506347656,0.04258276894688606,16,0.0,0.0,1561097980,,,,0,,5,0.36,30.099999999999998,-1552.9632568359375,19.077913284301758,,,I,80181399253942
Raw,1682137083412,80529596000000,18,,-1366091771816463054,-0.7165870666503906,64.41379082389176,-9.540016277015985,14.295229844450992,17,13,0.0,16399,533887283088956,19,31.3,-301.8663635253906,0.6410629749298096,16,0.0,0.0,1561097980,,,,0,,5,0.36,27.0,-1552.9632568359375,19.077913284301758,,,I,80181399253942
Raw,1682137083412,80529596000000,18,,-1366091771816463054,-0.7165870666503906,64.41379082389176,-9.540016277015985,14.295229844450992,17,9,0.0,16399,533887292970235,27,29.2,112.29508972167969,0.5855000019073486,16,0.0,0.0,1561097980,,,,0,,5,0.36,24.9,-1552.9632568359375,19.077913284301758,,,I,80181399253942
Raw,1682137083412,80529596000000,18,,-1366091771816463054,-0.7165870666503906,64.41379082389176,-9.540016277015985,14.295229844450992,17,8,0.0,16399,533887282957040,35,26.5,-339.3625793457031,0.750499963760376,16,0.0,0.0,1561097980,,,,0,,5,0.36,22.2,-1552.9632568359375,19.077913284301758,,,I,80181399253942
Raw,1682137083412,80529596000000,18,,-1366091771816463054,-0.7165870666503906,64.41379082389176,-9.540016277015985,14.295229844450992,17,6,0.0,16399,533887287806054,31,27.7,188.7172088623047,0.6829999685287476,16,0.0,0.0,1561097980,,,,0,,5,0.36,23.4,-1552.9632568359375,19.077913284301758,,,I,80181399253942
Raw,1682137083412,80529596000000,18,,-1366091771816463054,-0.7165870666503906,64.41379082389176,-9.540016277015985,14.295229844450992,17,19,0.0,23567,533901325056157,70,21.6,380.6539306640625,1.7920000553131104,16,0.0,0.0,1575420030,,,,0,,6,2.8,17.3,-1481.9332275390625,17.351186752319336,,,C,80181399253942
Raw,1682137083412,80529596000000,18,,-1366091771816463054,-0.7165870666503906,64.41379082389176,-9.540016277015985,14.295229844450992,17,26,0.0,23567,533901332789704,12,37.1,-85.03571319580078,0.02699756994843483,16,0.0,0.0,1575420030,,,,0,,6,2.8,32.800000000000004,-1481.9332275390625,17.351186752319336,,,C,80181399253942
Raw,1682137083412,80529596000000,18,,-1366091771816463054,-0.7165870666503906,64.41379082389176,-9.540016277015985,14.295229844450992,17,33,0.0,23567,533901328587084,27,29.2,-482.4175109863281,0.06319142878055573,16,0.0,0.0,1575420030,,,,0,,6,2.8,24.9,-1481.9332275390625,17.351186752319336,,,C,80181399253942
Fix,GPS,12.9853797000,80.2391798700,-85.69451904296875,0.0,4.9393296,,1682137084000,0.080622576,,80181986968786,5.5515285
Status,1682137084000,49,0,1,1,1575420030,15.70,56.0,30.0,0,1,0,12.2
Status,1682137084000,49,1,1,6,1575420030,29.10,188.0,27.0,1,1,0,25.6
Status,1682137084000,49,2,1,7,1575420030,35.30,122.0,53.0,1,1,0,31.8
Status,1682137084000,49,3,1,9,1575420030,16.10,169.0,13.0,0,1,0,12.6
Status,1682137084000,49,4,1,13,1575420030,14.50,297.0,24.0,0,1,0,11.0
Status,1682137084000,49,5,1,14,1575420030,18.50,359.0,37.0,0,1,0,15.0
Status,1682137084000,49,6,1,17,1575420030,17.20,310.0,64.0,0,1,0,13.700001
Status,1682137084000,49,7,1,19,1575420030,31.50,255.0,49.0,1,1,0,28.0
Status,1682137084000,49,8,1,30,1575420030,20.70,32.0,77.0,1,1,0,17.2
Status,1682137084000,49,9,1,3,1575420030,0.00,112.0,1.0,0,1,0,0.0
Status,1682137084000,49,10,1,21,1575420030,0.00,41.0,8.0,0,1,0,0.0
Status,1682137084000,49,11,4,194,1575420030,0.00,72.0,26.0,0,1,0,0.0
Status,1682137084000,49,12,4,195,1575420030,0.00,56.0,27.0,0,1,0,0.0
Status,1682137084000,49,13,3,12,1601437440,17.20,72.0,33.0,1,1,0,13.200001
Status,1682137084000,49,14,3,24,1603124990,22.30,195.0,60.0,1,1,0,18.3
Status,1682137084000,49,15,3,23,1603687550,14.40,34.0,62.0,0,1,0,10.4
Status,1682137084000,49,16,3,3,1604812540,20.10,258.0,13.0,1,1,0,16.1
Status,1682137084000,49,17,3,2,1599750020,0.00,208.0,10.0,0,1,0,0.0
Status,1682137084000,49,18,3,13,1600875010,0.00,12.0,35.0,0,1,0,0.0
Status,1682137084000,49,19,5,36,1561097980,18.30,356.0,47.0,0,1,0,13.999999
Status,1682137084000,49,20,5,30,1561097980,20.60,26.0,62.0,0,1,0,16.3
Status,1682137084000,49,21,5,29,1561097980,30.10,226.0,56.0,0,1,0,25.8
Status,1682137084000,49,22,5,27,1561097980,15.90,35.0,12.0,0,1,0,11.599999
Status,1682137084000,49,23,5,16,1561097980,34.70,155.0,39.0,1,1,0,30.400002
Status,1682137084000,49,24,5,13,1561097980,32.00,147.0,27.0,1,1,0,27.7
Status,1682137084000,49,25,5,10,1561097980,16.80,11.0,46.0,0,1,0,12.499999
Status,1682137084000,49,26,5,9,1561097980,27.50,160.0,62.0,1,1,0,23.2
Status,1682137084000,49,27,5,8,1561097980,25.50,133.0,26.0,1,1,0,21.2
Status,1682137084000,49,28,5,7,1561097980,16.70,29.0,38.0,1,1,0,12.400001
Status,1682137084000,49,29,5,6,1561097980,27.20,155.0,44.0,1,1,0,22.900002
Status,1682137084000,49,30,5,5,1561097980,25.80,237.0,60.0,1,1,0,21.5
Status,1682137084000,49,31,5,3,1561097980,25.50,112.0,51.0,0,1,0,21.2
Status,1682137084000,49,32,5,2,1561097980,24.80,165.0,72.0,0,1,0,20.5
Status,1682137084000,49,33,5,1,1561097980,0.00,96.0,16.0,0,1,0,0.0
Status,1682137084000,49,34,5,19,1561097980,0.00,209.0,13.0,0,1,0,0.0
Status,1682137084000,49,35,5,22,1561097980,0.00,258.0,5.0,0,1,0,0.0
Status,1682137084000,49,36,5,37,1561097980,0.00,118.0,5.0,0,1,0,0.0
Status,1682137084000,49,37,5,39,1561097980,0.00,155.0,29.0,0,1,0,0.0
Status,1682137084000,49,38,5,40,1561097980,0.00,30.0,26.0,0,1,0,0.0
Status,1682137084000,49,39,5,61,1561097980,0.00,109.0,52.0,0,1,0,0.0
Status,1682137084000,49,40,6,1,1575420030,16.30,348.0,36.0,0,1,0,11.999999
Status,1682137084000,49,41,6,13,1575420030,12.50,44.0,19.0,0,1,0,8.2
Status,1682137084000,49,42,6,19,1575420030,22.50,209.0,36.0,1,1,0,18.2
Status,1682137084000,49,43,6,21,1575420030,14.80,48.0,32.0,0,1,0,10.5
Status,1682137084000,49,44,6,26,1575420030,36.70,97.0,59.0,1,1,0,32.4
Status,1682137084000,49,45,6,33,1575420030,30.70,181.0,40.0,1,1,0,26.400002
Status,1682137084000,49,46,6,4,1575420030,0.00,279.0,27.0,0,1,0,0.0
Status,1682137084000,49,47,6,27,1575420030,0.00,89.0,1.0,0,1,0,0.0
Status,1682137084000,49,48,6,31,1575420030,0.00,300.0,6.0,0,1,0,0.0
Raw,1682137084412,80530596000000,18,,-1366091771816463084,-0.2506885528564453,64.78097930084914,-19.509454463124815,16.22073973060965,17,6,0.0,16399,533902336543377,24,29.1,-641.6992797851562,0.6663843393325806,16,0.0,0.0,1575420030,,,,0,,1,3.21,25.6,0.0,0.0,,,C,80182403486181
Raw,1682137084412,80530596000000,18,,-1366091771816463084,-0.2506885528564453,64.78097930084914,-19.509454463124815,16.22073973060965,17,7,0.0,16399,533902343062067,13,35.3,253.6759796142578,0.04739195108413696,16,0.0,0.0,1575420030,,,,0,,1,3.21,31.799999999999997,0.0,0.0,,,C,80182403486181
Raw,1682137084412,80530596000000,18,,-1366091771816463084,-0.2506885528564453,64.78097930084914,-19.509454463124815,16.22073973060965,17,19,0.0,16399,533902341006969,17,31.5,-225.04248046875,0.05779437720775604,16,0.0,0.0,1575420030,,,,0,,1,3.21,28.0,0.0,0.0,,,C,80182403486181
Raw,1682137084412,80530596000000,18,,-1366091771816463084,-0.2506885528564453,64.78097930084914,-19.509454463124815,16.22073973060965,17,36,0.0,16399,533888335640505,106,18.3,-335.0993347167969,3.569000244140625,16,0.0,0.0,1561097980,,,,0,,5,0.81,14.0,-1552.9346923828125,19.088212966918945,,,I,80182403486181
Raw,1682137084412,80530596000000,18,,-1366091771816463084,-0.2506885528564453,64.78097930084914,-19.509454463124815,16.22073973060965,17,29,0.0,16399,533888337984430,24,30.1,-293.54132080078125,1.8230559825897217,16,0.0,0.0,1561097980,,,,0,,5,0.81,25.8,-1552.9346923828125,19.088212966918945,,,I,80182403486181
Raw,1682137084412,80530596000000,18,,-1366091771816463084,-0.2506885528564453,64.78097930084914,-19.509454463124815,16.22073973060965,17,16,0.0,16399,533888287107103,14,34.7,198.94815063476562,0.04258276894688606,16,0.0,0.0,1561097980,,,,0,,5,0.81,30.400000000000002,-1552.9346923828125,19.088212966918945,,,I,80182403486181
Raw,1682137084412,80530596000000,18,,-1366091771816463084,-0.2506885528564453,64.78097930084914,-19.509454463124815,16.22073973060965,17,13,0.0,16399,533888283089942,19,32.0,-300.2992858886719,0.6410629749298096,16,0.0,0.0,1561097980,,,,0,,5,0.81,27.7,-1552.9346923828125,19.088212966918945,,,I,80182403486181
Raw,1682137084412,80530596000000,18,,-1366091771816463084,-0.2506885528564453,64.78097930084914,-19.509454463124815,16.22073973060965,17,9,0.0,16399,533888292969887,31,27.5,113.82180786132812,0.6754999756813049,16,0.0,0.0,1561097980,,,,0,,5,0.81,23.2,-1552.9346923828125,19.088212966918945,,,I,80182403486181
Raw,1682137084412,80530596000000,18,,-1366091771816463084,-0.2506885528564453,64.78097930084914,-19.509454463124815,16.22073973060965,17,8,0.0,16399,533888282958181,40,25.5,-337.38458251953125,0.8104999661445618,16,0.0,0.0,1561097980,,,,0,,5,0.81,21.2,-1552.9346923828125,19.088212966918945,,,I,80182403486181
Raw,1682137084412,80530596000000,18,,-1366091771816463084,-0.2506885528564453,64.78097930084914,-19.509454463124815,16.22073973060965,17,6,0.0,16399,533888287805436,35,27.2,190.33995056152344,0.6829999685287476,16,0.0,0.0,1561097980,,,,0,,5,0.81,22.9,-1552.9346923828125,19.088212966918945,,,I,80182403486181
Raw,1682137084412,80530596000000,18,,-1366091771816463084,-0.2506885528564453,64.78097930084914,-19.509454463124815,16.22073973060965,17,19,0.0,23567,533902325054868,61,22.5,380.501708984375,0.9980000257492065,16,0.0,0.0,1575420030,,,,0,,6,3.37,18.2,-1481.9332275390625,17.351186752319336,,,C,80182403486181
Raw,1682137084412,80530596000000,18,,-1366091771816463084,-0.2506885528564453,64.78097930084914,-19.509454463124815,16.22073973060965,17,26,0.0,23567,533902332789978,12,36.7,-83.43119812011719,0.02699756994843483,16,0.0,0.0,1575420030,,,,0,,6,3.37,32.400000000000006,-1481.9332275390625,17.351186752319336,,,C,80182403486181
Raw,1682137084412,80530596000000,18,,-1366091771816463084,-0.2506885528564453,64.78097930084914,-19.509454463124815,16.22073973060965,17,33,0.0,23567,533902328588686,21,30.7,-480.8674621582031,0.6094865202903748,16,0.0,0.0,1575420030,,,,0,,6,3.37,26.4,-1481.9332275390625,17.351186752319336,,,C,80182403486181
Fix,GPS,12.9853799700,80.2391800500,-85.6929931640625,0.0,4.887092,,1682137085000,0.080622576,,80182987027170,5.469201
Status,1682137085000,49,0,1,1,1575420030,15.70,56.0,30.0,0,1,0,12.2
Status,1682137085000,49,1,1,6,1575420030,28.90,188.0,27.0,1,1,0,25.4
Status,1682137085000,49,2,1,7,1575420030,33.80,122.0,53.0,1,1,0,30.3
Status,1682137085000,49,3,1,9,1575420030,16.10,169.0,13.0,0,1,0,12.6
Status,1682137085000,49,4,1,13,1575420030,14.50,297.0,24.0,0,1,0,11.0
Status,1682137085000,49,5,1,14,1575420030,18.50,359.0,37.0,0,1,0,15.0
Status,1682137085000,49,6,1,17,1575420030,17.20,310.0,64.0,0,1,0,13.700001
Status,1682137085000,49,7,1,19,1575420030,31.00,255.0,49.0,1,1,0,27.5
Status,1682137085000,49,8,1,30,1575420030,20.70,32.0,77.0,1,1,0,17.2
Status,1682137085000,49,9,1,3,1575420030,0.00,112.0,1.0,0,1,0,0.0
Status,1682137085000,49,10,1,21,1575420030,0.00,41.0,8.0,0,1,0,0.0
Status,1682137085000,49,11,4,194,1575420030,0.00,72.0,26.0,0,1,0,0.0
Status,1682137085000,49,12,4,195,1575420030,0.00,56.0,27.0,0,1,0,0.0
Status,1682137085000,49,13,3,12,1601437440,17.20,72.0,33.0,1,1,0,13.200001
Status,1682137085000,49,14,3,24,1603124990,22.20,195.0,60.0,1,1,0,18.2
Status,1682137085000,49,15,3,23,1603687550,14.40,34.0,62.0,0,1,0,10.4
Status,1682137085000,49,16,3,3,1604812540,20.20,258.0,13.0,1,1,0,16.2
Status,1682137085000,49,17,3,2,1599750020,0.00,208.0,10.0,0,1,0,0.0
Status,1682137085000,49,18,3,13,1600875010,0.00,12.0,35.0,0,1,0,0.0
Status,1682137085000,49,19,5,36,1561097980,18.30,356.0,47.0,0,1,0,13.999999
Status,1682137085000,49,20,5,30,1561097980,20.60,26.0,62.0,0,1,0,16.3
Status,1682137085000,49,21,5,29,1561097980,29.10,226.0,56.0,0,1,0,24.8
Status,1682137085000,49,22,5,27,1561097980,15.90,35.0,12.0,0,1,0,11.599999
Status,1682137085000,49,23,5,16,1561097980,34.40,155.0,39.0,1,1,0,30.100002
Status,1682137085000,49,24,5,13,1561097980,32.50,147.0,27.0,1,1,0,28.2
Status,1682137085000,49,25,5,10,1561097980,16.80,11.0,46.0,0,1,0,12.499999
Status,1682137085000,49,26,5,9,1561097980,27.20,160.0,62.0,1,1,0,22.900002
Status,1682137085000,49,27,5,8,1561097980,23.70,133.0,26.0,1,1,0,19.400002
Status,1682137085000,49,28,5,7,1561097980,16.70,29.0,38.0,1,1,0,12.400001
Status,1682137085000,49,29,5,6,1561097980,27.20,155.0,44.0,1,1,0,22.900002
Status,1682137085000,49,30,5,5,1561097980,25.80,237.0,60.0,1,1,0,21.5
Status,1682137085000,49,31,5,3,1561097980,25.50,112.0,51.0,0,1,0,21.2
Status,1682137085000,49,32,5,2,1561097980,24.80,165.0,72.0,0,1,0,20.5
Status,1682137085000,49,33,5,1,1561097980,0.00,96.0,16.0,0,1,0,0.0
Status,1682137085000,49,34,5,19,1561097980,0.00,209.0,13.0,0,1,0,0.0
Status,1682137085000,49,35,5,22,1561097980,0.00,258.0,5.0,0,1,0,0.0
Status,1682137085000,49,36,5,37,1561097980,0.00,118.0,5.0,0,1,0,0.0
Status,1682137085000,49,37,5,39,1561097980,0.00,155.0,29.0,0,1,0,0.0
Status,1682137085000,49,38,5,40,1561097980,0.00,30.0,26.0,0,1,0,0.0
Status,1682137085000,49,39,5,61,1561097980,0.00,109.0,52.0,0,1,0,0.0
Status,1682137085000,49,40,6,1,1575420030,16.30,348.0,36.0,0,1,0,11.999999
Status,1682137085000,49,41,6,13,1575420030,12.50,44.0,19.0,0,1,0,8.2
Status,1682137085000,49,42,6,19,1575420030,22.50,209.0,36.0,1,1,0,18.2
Status,1682137085000,49,43,6,21,1575420030,14.80,48.0,32.0,0,1,0,10.5
Status,1682137085000,49,44,6,26,1575420030,37.40,97.0,59.0,1,1,0,33.100002
Status,1682137085000,49,45,6,33,1575420030,30.40,181.0,40.0,1,1,0,26.099998
Status,1682137085000,49,46,6,4,1575420030,0.00,279.0,27.0,0,1,0,0.0
Status,1682137085000,49,47,6,27,1575420030,0.00,89.0,1.0,0,1,0,0.0
Status,1682137085000,49,48,6,31,1575420030,0.00,300.0,6.0,0,1,0,0.0
Raw,1682137085412,80531596000000,18,,-1366091771816463098,-0.8538265228271484,65.65158400917426,-15.605687030699613,17.940880006726715,17,6,0.0,16399,533903336545504,24,28.9,-642.2958374023438,1.2372653484344482,16,0.0,0.0,1575420030,,,,0,,1,2.46,25.4,0.0,0.0,,,C,80183401113264
Raw,1682137085412,80531596000000,18,,-1366091771816463098,-0.8538265228271484,65.65158400917426,-15.605687030699613,17.940880006726715,17,7,0.0,16399,533903343061234,14,33.8,253.17515563964844,0.04849565401673317,16,0.0,0.0,1575420030,,,,0,,1,2.46,30.299999999999997,0.0,0.0,,,C,80183401113264
Raw,1682137085412,80531596000000,18,,-1366091771816463098,-0.8538265228271484,65.65158400917426,-15.605687030699613,17.940880006726715,17,19,0.0,16399,533903341007728,19,31.0,-225.5945587158203,0.06770867854356766,16,0.0,0.0,1575420030,,,,0,,1,2.46,27.5,0.0,0.0,,,C,80183401113264
Raw,1682137085412,80531596000000,18,,-1366091771816463098,-0.8538265228271484,65.65158400917426,-15.605687030699613,17.940880006726715,17,24,0.0,49359,26285346774926,61,22.2,-412.7107849121094,1.695500135421753,16,0.0,0.0,1603124990,,,,0,,3,-1.29,18.2,3824.1884765625,19.89014434814453,,,C,80183401113264
Raw,1682137085412,80531596000000,18,,-1366091771816463098,-0.8538265228271484,65.65158400917426,-15.605687030699613,17.940880006726715,17,3,0.0,49359,26285334956639,80,20.2,279.0450439453125,1.877500057220459,16,0.0,0.0,1604812540,,,,0,,3,-1.29,16.2,3824.1884765625,19.89014434814453,,,C,80183401113264
Raw,1682137085412,80531596000000,18,,-1366091771816463098,-0.8538265228271484,65.65158400917426,-15.605687030699613,17.940880006726715,17,29,0.0,16399,533889337985414,27,29.1,-294.214111328125,0.578000009059906,16,0.0,0.0,1561097980,,,,0,,5,0.08,24.8,-1552.9075927734375,19.0987548828125,,,I,80183401113264
Raw,1682137085412,80531596000000,18,,-1366091771816463098,-0.8538265228271484,65.65158400917426,-15.605687030699613,17.940880006726715,17,16,0.0,16399,533889287106443,14,34.4,198.35916137695312,0.04258276894688606,16,0.0,0.0,1561097980,,,,0,,5,0.08,30.099999999999998,-1552.9075927734375,19.0987548828125,,,I,80183401113264
Raw,1682137085412,80531596000000,18,,-1366091771816463098,-0.8538265228271484,65.65158400917426,-15.605687030699613,17.940880006726715,17,13,0.0,16399,533889283090964,17,32.5,-300.9556579589844,0.05493927747011185,16,0.0,0.0,1561097980,,,,0,,5,0.08,28.2,-1552.9075927734375,19.0987548828125,,,I,80183401113264
Raw,1682137085412,80531596000000,18,,-1366091771816463098,-0.8538265228271484,65.65158400917426,-15.605687030699613,17.940880006726715,17,9,0.0,16399,533889292969480,35,27.2,113.66818237304688,0.6754999756813049,16,0.0,0.0,1561097980,,,,0,,5,0.08,22.9,-1552.9075927734375,19.0987548828125,,,I,80183401113264
Raw,1682137085412,80531596000000,18,,-1366091771816463098,-0.8538265228271484,65.65158400917426,-15.605687030699613,17.940880006726715,17,8,0.0,16399,533889282959258,53,23.7,-337.6534423828125,0.9404999613761902,16,0.0,0.0,1561097980,,,,0,,5,0.08,19.4,-1552.9075927734375,19.0987548828125,,,I,80183401113264
Raw,1682137085412,80531596000000,18,,-1366091771816463098,-0.8538265228271484,65.65158400917426,-15.605687030699613,17.940880006726715,17,6,0.0,16399,533889287804849,35,27.2,189.5045623779297,0.6829999685287476,16,0.0,0.0,1561097980,,,,0,,5,0.08,22.9,-1552.9075927734375,19.0987548828125,,,I,80183401113264
Raw,1682137085412,80531596000000,18,,-1366091771816463098,-0.8538265228271484,65.65158400917426,-15.605687030699613,17.940880006726715,17,26,0.0,23567,533903332790257,11,37.4,-83.94949340820312,0.026198336854577065,16,0.0,0.0,1575420030,,,,0,,6,2.64,33.1,-1481.9332275390625,17.351186752319336,,,C,80183401113264
Raw,1682137085412,80531596000000,18,,-1366091771816463098,-0.8538265228271484,65.65158400917426,-15.605687030699613,17.940880006726715,17,33,0.0,23567,533903328590308,21,30.4,-481.4453430175781,0.03860548511147499,16,0.0,0.0,1575420030,,,,0,,6,2.64,26.099999999999998,-1481.9332275390625,17.351186752319336,,,C,80183401113264
Fix,GPS,12.9853800800,80.2391801200,-85.68841552734375,0.0,4.8377047,,1682137086000,0.080622576,,80183987226805,5.390873
Status,1682137086000,49,0,1,1,1575420030,15.70,56.0,30.0,0,1,0,12.2
Status,1682137086000,49,1,1,6,1575420030,24.30,188.0,27.0,1,1,0,20.8
Status,1682137086000,49,2,1,7,1575420030,32.80,122.0,53.0,1,1,0,29.3
Status,1682137086000,49,3,1,9,1575420030,16.10,169.0,13.0,0,1,0,12.6
Status,1682137086000,49,4,1,13,1575420030,14.50,297.0,24.0,0,1,0,11.0
Status,1682137086000,49,5,1,14,1575420030,18.50,359.0,37.0,0,1,0,15.0
Status,1682137086000,49,6,1,17,1575420030,17.20,310.0,64.0,0,1,0,13.700001
Status,1682137086000,49,7,1,19,1575420030,31.30,255.0,49.0,1,1,0,27.8
Status,1682137086000,49,8,1,30,1575420030,20.70,32.0,77.0,0,1,0,17.2
Status,1682137086000,49,9,1,3,1575420030,0.00,112.0,1.0,0,1,0,0.0
Status,1682137086000,49,10,1,21,1575420030,0.00,41.0,8.0,0,1,0,0.0
Status,1682137086000,49,11,4,194,1575420030,0.00,72.0,26.0,0,1,0,0.0
Status,1682137086000,49,12,4,195,1575420030,0.00,56.0,27.0,0,1,0,0.0
Status,1682137086000,49,13,3,12,1601437440,17.20,72.0,33.0,1,1,0,13.200001
Status,1682137086000,49,14,3,24,1603124990,25.00,195.0,60.0,1,1,0,21.0
Status,1682137086000,49,15,3,23,1603687550,14.40,34.0,62.0,0,1,0,10.4
Status,1682137086000,49,16,3,3,1604812540,22.20,258.0,13.0,1,1,0,18.2
Status,1682137086000,49,17,3,2,1599750020,0.00,208.0,10.0,0,1,0,0.0
Status,1682137086000,49,18,3,13,1600875010,0.00,12.0,35.0,0,1,0,0.0
Status,1682137086000,49,19,5,36,1561097980,18.30,356.0,47.0,0,1,0,13.999999
Status,1682137086000,49,20,5,30,1561097980,20.60,26.0,62.0,0,1,0,16.3
Status,1682137086000,49,21,5,29,1561097980,27.20,226.0,56.0,0,1,0,22.900002
Status,1682137086000,49,22,5,27,1561097980,15.90,35.0,12.0,0,1,0,11.599999
Status,1682137086000,49,23,5,16,1561097980,33.10,155.0,39.0,1,1,0,28.8
Status,1682137086000,49,24,5,13,1561097980,29.50,147.0,27.0,1,1,0,25.2
Status,1682137086000,49,25,5,10,1561097980,16.80,11.0,46.0,0,1,0,12.499999
Status,1682137086000,49,26,5,9,1561097980,23.60,160.0,62.0,1,1,0,19.3
Status,1682137086000,49,27,5,8,1561097980,23.20,133.0,26.0,1,1,0,18.900002
Status,1682137086000,49,28,5,7,1561097980,16.70,29.0,38.0,0,1,0,12.400001
Status,1682137086000,49,29,5,6,1561097980,29.30,155.0,44.0,1,1,0,25.0
Status,1682137086000,49,30,5,5,1561097980,25.80,237.0,60.0,1,1,0,21.5
Status,1682137086000,49,31,5,3,1561097980,25.50,112.0,51.0,0,1,0,21.2
Status,1682137086000,49,32,5,2,1561097980,24.80,165.0,72.0,0,1,0,20.5
Status,1682137086000,49,33,5,1,1561097980,0.00,96.0,16.0,0,1,0,0.0
Status,1682137086000,49,34,5,19,1561097980,0.00,209.0,13.0,0,1,0,0.0
Status,1682137086000,49,35,5,22,1561097980,0.00,258.0,5.0,0,1,0,0.0
Status,1682137086000,49,36,5,37,1561097980,0.00,118.0,5.0,0,1,0,0.0
Status,1682137086000,49,37,5,39,1561097980,0.00,155.0,29.0,0,1,0,0.0
Status,1682137086000,49,38,5,40,1561097980,0.00,30.0,26.0,0,1,0,0.0
Status,1682137086000,49,39,5,61,1561097980,0.00,109.0,52.0,0,1,0,0.0
Status,1682137086000,49,40,6,1,1575420030,16.30,348.0,36.0,0,1,0,11.999999
Status,1682137086000,49,41,6,13,1575420030,12.50,44.0,19.0,0,1,0,8.2
Status,1682137086000,49,42,6,19,1575420030,20.80,209.0,36.0,1,1,0,16.5
Status,1682137086000,49,43,6,21,1575420030,14.80,48.0,32.0,0,1,0,10.5
Status,1682137086000,49,44,6,26,1575420030,36.70,97.0,59.0,1,1,0,32.4
Status,1682137086000,49,45,6,33,1575420030,26.50,181.0,40.0,1,1,0,22.2
Status,1682137086000,49,46,6,4,1575420030,0.00,279.0,27.0,0,1,0,0.0
Status,1682137086000,49,47,6,27,1575420030,0.00,89.0,1.0,0,1,0,0.0
Status,1682137086000,49,48,6,31,1575420030,0.00,300.0,6.0,0,1,0,0.0
Raw,1682137086412,80532596000000,18,,-1366091771816463118,-0.40415000915527344,60.740589105989784,-17.32317107570429,14.191581161553483,17,6,0.0,16399,533904336547652,46,24.3,-640.794921875,0.8495000004768372,16,0.0,0.0,1575420030,,,,0,,1,3.53,20.8,0.0,0.0,,,C,80184404391024
Raw,1682137086412,80532596000000,18,,-1366091771816463118,-0.40415000915527344,60.740589105989784,-17.32317107570429,14.191581161553483,17,7,0.0,16399,533904343060385,16,32.8,254.1146697998047,0.05340523272752762,16,0.0,0.0,1575420030,,,,0,,1,3.53,29.299999999999997,0.0,0.0,,,C,80184404391024
Raw,1682137086412,80532596000000,18,,-1366091771816463118,-0.40415000915527344,60.740589105989784,-17.32317107570429,14.191581161553483,17,19,0.0,16399,533904341008486,19,31.3,-224.66110229492188,0.06770867854356766,16,0.0,0.0,1575420030,,,,0,,1,3.53,27.8,0.0,0.0,,,C,80184404391024
Raw,1682137086412,80532596000000,18,,-1366091771816463118,-0.40415000915527344,60.740589105989784,-17.32317107570429,14.191581161553483,17,24,0.0,49359,26286346776363,40,25.0,-411.570068359375,0.8044999837875366,16,0.0,0.0,1603124990,,,,0,,3,-0.76,21.0,3824.192626953125,19.905786514282227,,,C,80184404391024
Raw,1682137086412,80532596000000,18,,-1366091771816463118,-0.40415000915527344,60.740589105989784,-17.32317107570429,14.191581161553483,17,3,0.0,49359,26286334955676,61,22.2,278.45660400390625,1.002500057220459,16,0.0,0.0,1604812540,,,,0,,3,-0.76,18.2,3824.192626953125,19.905786514282227,,,C,80184404391024
Raw,1682137086412,80532596000000,18,,-1366091771816463118,-0.40415000915527344,60.740589105989784,-17.32317107570429,14.191581161553483,17,29,0.0,16399,533890337986374,35,27.2,-293.0234375,0.6679999828338623,16,0.0,0.0,1561097980,,,,0,,5,0.47,22.9,-1552.8720703125,19.108261108398438,,,I,80184404391024
Raw,1682137086412,80532596000000,18,,-1366091771816463118,-0.40415000915527344,60.740589105989784,-17.32317107570429,14.191581161553483,17,16,0.0,16399,533890287105776,17,33.1,199.1743927001953,0.04893927648663521,16,0.0,0.0,1561097980,,,,0,,5,0.47,28.8,-1552.8720703125,19.108261108398438,,,I,80184404391024
Raw,1682137086412,80532596000000,18,,-1366091771816463118,-0.40415000915527344,60.740589105989784,-17.32317107570429,14.191581161553483,17,13,0.0,16399,533890283091955,24,29.5,-300.00494384765625,1.2679375410079956,16,0.0,0.0,1561097980,,,,0,,5,0.47,25.2,-1552.8720703125,19.108261108398438,,,I,80184404391024
Raw,1682137086412,80532596000000,18,,-1366091771816463118,-0.40415000915527344,60.740589105989784,-17.32317107570429,14.191581161553483,17,9,0.0,16399,533890292969111,53,23.6,114.29230499267578,0.9254999756813049,16,0.0,0.0,1561097980,,,,0,,5,0.47,19.3,-1552.8720703125,19.108261108398438,,,I,80184404391024
Raw,1682137086412,80532596000000,18,,-1366091771816463118,-0.40415000915527344,60.740589105989784,-17.32317107570429,14.191581161553483,17,8,0.0,16399,533890282960420,61,23.2,-337.77825927734375,0.9404999613761902,16,0.0,0.0,1561097980,,,,0,,5,0.47,18.9,-1552.8720703125,19.108261108398438,,,I,80184404391024
Raw,1682137086412,80532596000000,18,,-1366091771816463118,-0.40415000915527344,60.740589105989784,-17.32317107570429,14.191581161553483,17,6,0.0,16399,533890287804182,24,29.3,190.6558837890625,1.838055968284607,16,0.0,0.0,1561097980,,,,0,,5,0.47,25.0,-1552.8720703125,19.108261108398438,,,I,80184404391024
Raw,1682137086412,80532596000000,18,,-1366091771816463118,-0.40415000915527344,60.740589105989784,-17.32317107570429,14.191581161553483,17,19,0.0,23567,533904325052285,80,20.8,379.6358642578125,1.8819999694824219,16,0.0,0.0,1575420030,,,,0,,6,3.67,16.5,-1481.9332275390625,17.351186752319336,,,C,80184404391024
Raw,1682137086412,80532596000000,18,,-1366091771816463118,-0.40415000915527344,60.740589105989784,-17.32317107570429,14.191581161553483,17,26,0.0,23567,533904332790536,12,36.7,-83.0480728149414,0.02699756994843483,16,0.0,0.0,1575420030,,,,0,,6,3.67,32.400000000000006,-1481.9332275390625,17.351186752319336,,,C,80184404391024
Raw,1682137086412,80532596000000,18,,-1366091771816463118,-0.40415000915527344,60.740589105989784,-17.32317107570429,14.191581161553483,17,33,0.0,23567,533904328591903,35,26.5,-480.4840393066406,2.8889572620391846,16,0.0,0.0,1575420030,,,,0,,6,3.67,22.2,-1481.9332275390625,17.351186752319336,,,C,80184404391024
Fix,GPS,12.9853819000,80.2391817300,-84.79296875,0.0,4.742743,,1682137087000,1.0151354,,80184987259670,5.2711973
Status,1682137087000,49,0,1,1,1575420030,15.70,56.0,30.0,0,1,0,12.2
Status,1682137087000,49,1,1,6,1575420030,28.50,188.0,27.0,1,1,0,25.0
Status,1682137087000,49,2,1,7,1575420030,33.70,122.0,53.0,1,1,0,30.2
Status,1682137087000,49,3,1,9,1575420030,16.10,169.0,13.0,0,1,0,12.6
Status,1682137087000,49,4,1,14,1575420030,18.50,359.0,37.0,0,1,0,15.0
Status,1682137087000,49,5,1,17,1575420030,17.20,310.0,64.0,0,1,0,13.700001
Status,1682137087000,49,6,1,19,1575420030,30.70,255.0,49.0,1,1,0,27.2
Status,1682137087000,49,7,1,30,1575420030,20.70,32.0,77.0,0,1,0,17.2
Status,1682137087000,49,8,1,3,1575420030,0.00,112.0,1.0,0,1,0,0.0
Status,1682137087000,49,9,1,13,1575420030,0.00,297.0,24.0,0,1,0,0.0
Status,1682137087000,49,10,1,21,1575420030,0.00,41.0,8.0,0,1,0,0.0
Status,1682137087000,49,11,4,194,1575420030,0.00,72.0,26.0,0,1,0,0.0
Status,1682137087000,49,12,4,195,1575420030,0.00,56.0,27.0,0,1,0,0.0
Status,1682137087000,49,13,3,12,1601437440,17.20,72.0,33.0,0,1,0,13.200001
Status,1682137087000,49,14,3,24,1603124990,22.60,195.0,60.0,1,1,0,18.6
Status,1682137087000,49,15,3,23,1603687550,14.50,34.0,62.0,0,1,0,10.5
Status,1682137087000,49,16,3,3,1604812540,22.20,258.0,13.0,1,1,0,18.2
Status,1682137087000,49,17,3,2,1599750020,0.00,208.0,10.0,0,1,0,0.0
Status,1682137087000,49,18,3,13,1600875010,0.00,12.0,35.0,0,1,0,0.0
Status,1682137087000,49,19,5,36,1561097980,18.30,356.0,47.0,0,1,0,13.999999
Status,1682137087000,49,20,5,30,1561097980,20.60,26.0,62.0,0,1,0,16.3
Status,1682137087000,49,21,5,29,1561097980,29.90,226.0,56.0,0,1,0,25.599998
Status,1682137087000,49,22,5,27,1561097980,15.90,35.0,12.0,0,1,0,11.599999
Status,1682137087000,49,23,5,16,1561097980,33.30,155.0,39.0,1,1,0,29.0
Status,1682137087000,49,24,5,13,1561097980,32.10,147.0,27.0,1,1,0,27.8
Status,1682137087000,49,25,5,10,1561097980,16.80,11.0,46.0,0,1,0,12.499999
Status,1682137087000,49,26,5,9,1561097980,27.80,160.0,62.0,1,1,0,23.5
Status,1682137087000,49,27,5,8,1561097980,25.30,133.0,26.0,1,1,0,21.0
Status,1682137087000,49,28,5,7,1561097980,16.70,29.0,38.0,0,1,0,12.400001
Status,1682137087000,49,29,5,6,1561097980,29.70,155.0,44.0,1,1,0,25.400002
Status,1682137087000,49,30,5,5,1561097980,25.80,237.0,60.0,1,1,0,21.5
Status,1682137087000,49,31,5,3,1561097980,25.50,112.0,51.0,0,1,0,21.2
Status,1682137087000,49,32,5,2,1561097980,24.80,165.0,72.0,0,1,0,20.5
Status,1682137087000,49,33,5,1,1561097980,0.00,96.0,16.0,0,1,0,0.0
Status,1682137087000,49,34,5,19,1561097980,0.00,209.0,13.0,0,1,0,0.0
Status,1682137087000,49,35,5,22,1561097980,0.00,258.0,5.0,0,1,0,0.0
Status,1682137087000,49,36,5,37,1561097980,0.00,118.0,5.0,0,1,0,0.0
Status,1682137087000,49,37,5,39,1561097980,0.00,155.0,29.0,0,1,0,0.0
Status,1682137087000,49,38,5,40,1561097980,0.00,30.0,26.0,0,1,0,0.0
Status,1682137087000,49,39,5,61,1561097980,0.00,109.0,52.0,0,1,0,0.0
Status,1682137087000,49,40,6,1,1575420030,16.30,348.0,36.0,0,1,0,11.999999
Status,1682137087000,49,41,6,13,1575420030,12.50,44.0,19.0,0,1,0,8.2
Status,1682137087000,49,42,6,19,1575420030,22.30,209.0,36.0,1,1,0,18.0
Status,1682137087000,49,43,6,21,1575420030,14.80,48.0,32.0,0,1,0,10.5
Status,1682137087000,49,44,6,26,1575420030,37.20,97.0,59.0,1,1,0,32.9
Status,1682137087000,49,45,6,33,1575420030,30.40,181.0,40.0,1,1,0,26.099998
Status,1682137087000,49,46,6,4,1575420030,0.00,279.0,27.0,0,1,0,0.0
Status,1682137087000,49,47,6,27,1575420030,0.00,89.0,1.0,0,1,0,0.0
Status,1682137087000,49,48,6,31,1575420030,0.00,300.0,6.0,0,1,0,0.0
Raw,1682137087412,80533596000000,18,,-1366091771816463130,-0.950927734375,64.45265898946673,-15.04082914602597,18.67091888376726,17,6,0.0,16399,533905336549797,24,28.5,-642.8778076171875,1.2372653484344482,16,0.0,0.0,1575420030,,,,0,,1,3.44,25.0,0.0,0.0,,,C,80185406044982
Raw,1682137087412,80533596000000,18,,-1366091771816463130,-0.950927734375,64.45265898946673,-15.04082914602597,18.67091888376726,17,7,0.0,16399,533905343059539,14,33.7,252.73074340820312,0.04849565401673317,16,0.0,0.0,1575420030,,,,0,,1,3.44,30.200000000000003,0.0,0.0,,,C,80185406044982
Raw,1682137087412,80533596000000,18,,-1366091771816463130,-0.950927734375,64.45265898946673,-15.04082914602597,18.67091888376726,17,19,0.0,16399,533905341009236,19,30.7,-226.0674591064453,0.06770867854356766,16,0.0,0.0,1575420030,,,,0,,1,3.44,27.2,0.0,0.0,,,C,80185406044982
Raw,1682137087412,80533596000000,18,,-1366091771816463130,-0.950927734375,64.45265898946673,-15.04082914602597,18.67091888376726,17,24,0.0,49359,26287346777782,61,22.6,-413.9076232910156,1.0145000219345093,16,0.0,0.0,1603124990,,,,0,,3,-0.82,18.6,3824.2001953125,19.920778274536133,,,C,80185406044982
Raw,1682137087412,80533596000000,18,,-1366091771816463130,-0.950927734375,64.45265898946673,-15.04082914602597,18.67091888376726,17,23,0.0,49359,26287346688915,181,14.5,333.5467224121094,10.065500259399414,16,0.0,0.0,1603687550,,,,0,,3,-0.82,10.5,3824.2001953125,19.920778274536133,,,C,80185406044982
Raw,1682137087412,80533596000000,18,,-1366091771816463130,-0.950927734375,64.45265898946673,-15.04082914602597,18.67091888376726,17,29,0.0,16399,533891337987355,24,29.9,-294.49261474609375,0.09470056742429733,16,0.0,0.0,1561097980,,,,0,,5,0.55,25.599999999999998,-1552.831787109375,19.118661880493164,,,I,80185406044982
Raw,1682137087412,80533596000000,18,,-1366091771816463130,-0.950927734375,64.45265898946673,-15.04082914602597,18.67091888376726,17,16,0.0,16399,533891287105118,16,33.3,197.73834228515625,0.047537390142679214,16,0.0,0.0,1561097980,,,,0,,5,0.55,28.999999999999996,-1552.831787109375,19.118661880493164,,,I,80185406044982
Raw,1682137087412,80533596000000,18,,-1366091771816463130,-0.950927734375,64.45265898946673,-15.04082914602597,18.67091888376726,17,13,0.0,16399,533891283092952,19,32.1,-301.63092041015625,0.06494453549385071,16,0.0,0.0,1561097980,,,,0,,5,0.55,27.8,-1552.831787109375,19.118661880493164,,,I,80185406044982
Raw,1682137087412,80533596000000,18,,-1366091771816463130,-0.950927734375,64.45265898946673,-15.04082914602597,18.67091888376726,17,9,0.0,16399,533891292968719,31,27.8,112.28549194335938,0.6754999756813049,16,0.0,0.0,1561097980,,,,0,,5,0.55,23.5,-1552.831787109375,19.118661880493164,,,I,80185406044982
Raw,1682137087412,80533596000000,18,,-1366091771816463130,-0.950927734375,64.45265898946673,-15.04082914602597,18.67091888376726,17,8,0.0,16399,533891282961533,40,25.3,-338.1527404785156,0.8104999661445618,16,0.0,0.0,1561097980,,,,0,,5,0.55,21.0,-1552.831787109375,19.118661880493164,,,I,80185406044982
Raw,1682137087412,80533596000000,18,,-1366091771816463130,-0.950927734375,64.45265898946673,-15.04082914602597,18.67091888376726,17,6,0.0,16399,533891287803540,24,29.7,189.34500122070312,0.6858190298080444,16,0.0,0.0,1561097980,,,,0,,5,0.55,25.4,-1552.831787109375,19.118661880493164,,,I,80185406044982
Raw,1682137087412,80533596000000,18,,-1366091771816463130,-0.950927734375,64.45265898946673,-15.04082914602597,18.67091888376726,17,19,0.0,23567,533905325051090,61,22.3,377.8946838378906,0.9980000257492065,16,0.0,0.0,1575420030,,,,0,,6,3.56,18.0,-1481.9332275390625,17.351186752319336,,,C,80185406044982
Raw,1682137087412,80533596000000,18,,-1366091771816463130,-0.950927734375,64.45265898946673,-15.04082914602597,18.67091888376726,17,26,0.0,23567,533905332790800,12,37.2,-84.3913345336914,0.02699756994843483,16,0.0,0.0,1575420030,,,,0,,6,3.56,32.900000000000006,-1481.9332275390625,17.351186752319336,,,C,80185406044982
Raw,1682137087412,80533596000000,18,,-1366091771816463130,-0.950927734375,64.45265898946673,-15.04082914602597,18.67091888376726,17,33,0.0,23567,533905328593503,21,30.4,-481.965087890625,0.03860548511147499,16,0.0,0.0,1575420030,,,,0,,6,3.56,26.099999999999998,-1481.9332275390625,17.351186752319336,,,C,80185406044982
Fix,GPS,12.9853854300,80.2391821600,-84.75320434570312,0.0,4.602599,,1682137088000,0.8792042,,80185987169565,5.1516943
Status,1682137088000,49,0,1,1,1575420030,15.70,56.0,30.0,0,1,0,12.2
Status,1682137088000,49,1,1,6,1575420030,30.40,188.0,27.0,1,1,0,26.9
Status,1682137088000,49,2,1,7,1575420030,33.40,122.0,53.0,1,1,0,29.900002
Status,1682137088000,49,3,1,9,1575420030,16.10,169.0,13.0,0,1,0,12.6
Status,1682137088000,49,4,1,14,1575420030,18.50,359.0,37.0,0,1,0,15.0
Status,1682137088000,49,5,1,17,1575420030,17.20,310.0,64.0,0,1,0,13.700001
Status,1682137088000,49,6,1,19,1575420030,32.30,255.0,49.0,1,1,0,28.8
Status,1682137088000,49,7,1,30,1575420030,20.70,32.0,77.0,0,1,0,17.2
Status,1682137088000,49,8,1,3,1575420030,0.00,112.0,1.0,0,1,0,0.0
Status,1682137088000,49,9,1,13,1575420030,0.00,297.0,24.0,0,1,0,0.0
Status,1682137088000,49,10,1,21,1575420030,0.00,41.0,8.0,0,1,0,0.0
Status,1682137088000,49,11,4,194,1575420030,0.00,72.0,26.0,0,1,0,0.0
Status,1682137088000,49,12,4,195,1575420030,0.00,56.0,27.0,0,1,0,0.0
Status,1682137088000,49,13,3,12,1601437440,17.20,72.0,33.0,0,1,0,13.200001
Status,1682137088000,49,14,3,24,1603124990,22.60,195.0,60.0,1,1,0,18.6
Status,1682137088000,49,15,3,23,1603687550,14.50,34.0,62.0,1,1,0,10.5
Status,1682137088000,49,16,3,3,1604812540,22.20,258.0,13.0,1,1,0,18.2
Status,1682137088000,49,17,3,2,1599750020,0.00,208.0,10.0,0,1,0,0.0
Status,1682137088000,49,18,3,13,1600875010,0.00,12.0,35.0,0,1,0,0.0
Status,1682137088000,49,19,5,36,1561097980,18.30,356.0,47.0,0,1,0,13.999999
Status,1682137088000,49,20,5,30,1561097980,20.60,26.0,62.0,0,1,0,16.3
Status,1682137088000,49,21,5,29,1561097980,31.70,226.0,56.0,0,1,0,27.400002
Status,1682137088000,49,22,5,27,1561097980,15.90,35.0,12.0,0,1,0,11.599999
Status,1682137088000,49,23,5,16,1561097980,31.60,155.0,39.0,1,1,0,27.3
Status,1682137088000,49,24,5,13,1561097980,31.00,147.0,27.0,1,1,0,26.7
Status,1682137088000,49,25,5,10,1561097980,16.80,11.0,46.0,0,1,0,12.499999
Status,1682137088000,49,26,5,9,1561097980,25.60,160.0,62.0,1,1,0,21.3
Status,1682137088000,49,27,5,8,1561097980,26.10,133.0,26.0,1,1,0,21.8
Status,1682137088000,49,28,5,7,1561097980,16.70,29.0,38.0,0,1,0,12.400001
Status,1682137088000,49,29,5,6,1561097980,28.00,155.0,44.0,1,1,0,23.7
Status,1682137088000,49,30,5,5,1561097980,25.80,237.0,60.0,1,1,0,21.5
Status,1682137088000,49,31,5,3,1561097980,23.90,112.0,51.0,0,1,0,19.599998
Status,1682137088000,49,32,5,2,1561097980,21.40,165.0,72.0,0,1,0,17.099998
Status,1682137088000,49,33,5,1,1561097980,0.00,96.0,16.0,0,1,0,0.0
Status,1682137088000,49,34,5,19,1561097980,0.00,209.0,13.0,0,1,0,0.0
Status,1682137088000,49,35,5,22,1561097980,0.00,258.0,5.0,0,1,0,0.0
Status,1682137088000,49,36,5,37,1561097980,0.00,118.0,5.0,0,1,0,0.0
Status,1682137088000,49,37,5,39,1561097980,0.00,155.0,29.0,0,1,0,0.0
Status,1682137088000,49,38,5,40,1561097980,0.00,30.0,26.0,0,1,0,0.0
Status,1682137088000,49,39,5,61,1561097980,0.00,109.0,52.0,0,1,0,0.0
Status,1682137088000,49,40,6,1,1575420030,16.30,348.0,36.0,0,1,0,11.999999
Status,1682137088000,49,41,6,13,1575420030,12.50,44.0,19.0,0,1,0,8.2
Status,1682137088000,49,42,6,19,1575420030,22.30,209.0,36.0,1,1,0,18.0
Status,1682137088000,49,43,6,21,1575420030,14.80,48.0,32.0,0,1,0,10.5
Status,1682137088000,49,44,6,26,1575420030,31.70,97.0,59.0,1,1,0,27.400002
Status,1682137088000,49,45,6,33,1575420030,33.80,181.0,40.0,1,1,0,29.5
Status,1682137088000,49,46,6,4,1575420030,0.00,279.0,27.0,0,1,0,0.0
Status,1682137088000,49,47,6,27,1575420030,0.00,89.0,1.0,0,1,0,0.0
Status,1682137088000,49,48,6,31,1575420030,0.00,300.0,6.0,0,1,0,0.0
Raw,1682137088412,80534596000000,18,,-1366091771816463154,-0.2861461639404297,62.716811953578144,-19.68712292283505,18.27376938741117,17,6,0.0,16399,533906336551952,21,30.4,-644.8381958007812,0.06359104067087173,16,0.0,0.0,1575420030,,,,0,,1,3.63,26.9,0.0,0.0,,,C,80186404381180
Raw,1682137088412,80534596000000,18,,-1366091771816463154,-0.2861461639404297,62.716811953578144,-19.68712292283505,18.27376938741117,17,7,0.0,16399,533906343058682,16,33.4,250.93846130371094,0.05340523272752762,16,0.0,0.0,1575420030,,,,0,,1,3.63,29.9,0.0,0.0,,,C,80186404381180
Raw,1682137088412,80534596000000,18,,-1366091771816463154,-0.2861461639404297,62.716811953578144,-19.68712292283505,18.27376938741117,17,19,0.0,16399,533906341010003,17,32.3,-227.8828887939453,0.05779437720775604,16,0.0,0.0,1575420030,,,,0,,1,3.63,28.799999999999997,0.0,0.0,,,C,80186404381180
