# 
# Header Description:
# 
# Version: v3.0.6.1 Platform: 12 Manufacturer: Xiaomi Model: 2201116PI
# 
# Raw,utcTimeMillis,TimeNanos,LeapSecond,TimeUncertaintyNanos,FullBiasNanos,BiasNanos,BiasUncertaintyNanos,DriftNanosPerSecond,DriftUncertaintyNanosPerSecond,HardwareClockDiscontinuityCount,Svid,TimeOffsetNanos,State,ReceivedSvTimeNanos,ReceivedSvTimeUncertaintyNanos,Cn0DbHz,PseudorangeRateMetersPerSecond,PseudorangeRateUncertaintyMetersPerSecond,AccumulatedDeltaRangeState,AccumulatedDeltaRangeMeters,AccumulatedDeltaRangeUncertaintyMeters,CarrierFrequencyHz,CarrierCycles,CarrierPhase,CarrierPhaseUncertainty,MultipathIndicator,SnrInDb,ConstellationType,AgcDb,BasebandCn0DbHz,FullInterSignalBiasNanos,FullInterSignalBiasUncertaintyNanos,SatelliteInterSignalBiasNanos,SatelliteInterSignalBiasUncertaintyNanos,CodeType,ChipsetElapsedRealtimeNanos
# 
# UncalAccel,utcTimeMillis,elapsedRealtimeNanos,UncalAccelXMps2,UncalAccelYMps2,UncalAccelZMps2,BiasXMps2,BiasYMps2,BiasZMps2
# 
# Accel,utcTimeMillis,elapsedRealtimeNanos,AccelXMps2,AccelYMps2,AccelZMps2
# 
# UncalGyro,utcTimeMillis,elapsedRealtimeNanos,UncalGyroXRadPerSec,UncalGyroYRadPerSec,UncalGyroZRadPerSec,DriftXRadPerSec,DriftYRadPerSec,DriftZRadPerSec
# 
# Gyro,utcTimeMillis,elapsedRealtimeNanos,GyroXRadPerSec,GyroYRadPerSec,GyroZRadPerSec
# 
# UncalMag,utcTimeMillis,elapsedRealtimeNanos,UncalMagXMicroT,UncalMagYMicroT,UncalMagZMicroT,BiasXMicroT,BiasYMicroT,BiasZMicroT
# 
# Mag,utcTimeMillis,elapsedRealtimeNanos,MagXMicroT,MagYMicroT,MagZMicroT
# 
# OrientationDeg,utcTimeMillis,elapsedRealtimeNanos,yawDeg,rollDeg,pitchDeg
# 
# Fix,Provider,LatitudeDegrees,LongitudeDegrees,AltitudeMeters,SpeedMps,AccuracyMeters,BearingDegrees,UnixTimeMillis,SpeedAccuracyMps,BearingAccuracyDegrees,elapsedRealtimeNanos,VerticalAccuracyMeters
# 
# Nav,Svid,Type,Status,MessageId,Sub-messageId,Data(Bytes)
# 
# Status,UnixTimeMillis,SignalCount,SignalIndex,ConstellationType,Svid,CarrierFrequencyHz,Cn0DbHz,AzimuthDegrees,ElevationDegrees,UsedInFix,HasAlmanacData,HasEphemerisData,BasebandCn0DbHz
# 
Status,,47,0,1,4,1575420030,25.10,41.0,75.0,0,1,0,21.6
Status,,47,1,1,7,1575420030,31.20,320.0,25.0,0,1,0,27.7
Status,,47,2,1,9,1575420030,26.70,334.0,49.0,0,1,0,23.2
Status,,47,3,1,27,1575420030,29.00,61.0,35.0,0,1,0,25.5
Status,,47,4,1,1,1575420030,0.00,173.0,7.0,0,1,0,0.0
Status,,47,5,1,3,1575420030,0.00,197.0,31.0,0,1,0,0.0
Status,,47,6,1,8,1575420030,0.00,104.0,58.0,0,1,0,0.0
Status,,47,7,1,14,1575420030,0.00,237.0,14.0,0,1,0,0.0
Status,,47,8,1,16,1575420030,0.00,32.0,17.0,0,1,0,0.0
Status,,47,9,1,21,1575420030,0.00,150.0,11.0,0,1,0,0.0
Status,,47,10,1,30,1575420030,0.00,294.0,4.0,0,1,0,0.0
Status,,47,11,4,194,1575420030,0.00,49.0,24.0,0,1,0,0.0
Status,,47,12,4,195,1575420030,0.00,92.0,14.0,0,1,0,0.0
Status,,47,13,3,11,1602000000,32.90,359.0,28.0,0,1,0,28.900002
Status,,47,14,3,1,1602562560,25.60,312.0,60.0,0,1,0,21.6
Status,,47,15,3,2,1599750020,0.00,332.0,7.0,0,1,0,0.0
Status,,47,16,3,13,1600875010,0.00,253.0,2.0,0,1,0,0.0
Status,,47,17,3,12,1601437440,0.00,293.0,29.0,0,1,0,0.0
Status,,47,18,3,20,1603124990,0.00,0.0,0.0,0,1,0,0.0
Status,,47,19,3,21,1604249980,0.00,105.0,18.0,0,1,0,0.0
Status,,47,20,3,7,1604812540,0.00,159.0,9.0,0,1,0,0.0
Status,,47,21,3,8,1605374980,0.00,172.0,57.0,0,1,0,0.0
Status,,47,22,5,19,1561097980,30.40,315.0,20.0,0,1,0,26.099998
Status,,47,23,5,16,1561097980,28.30,71.0,42.0,0,1,0,24.0
Status,,47,24,5,1,1561097980,0.00,97.0,16.0,0,1,0,0.0
Status,,47,25,5,2,1561097980,0.00,165.0,73.0,0,1,0,0.0
Status,,47,26,5,3,1561097980,0.00,113.0,51.0,0,1,0,0.0
Status,,47,27,5,4,1561097980,0.00,92.0,1.0,0,1,0,0.0
Status,,47,28,5,5,1561097980,0.00,239.0,60.0,0,1,0,0.0
Status,,47,29,5,6,1561097980,0.00,65.0,45.0,0,1,0,0.0
Status,,47,30,5,7,1561097980,0.00,45.0,64.0,0,1,0,0.0
Status,,47,31,5,8,1561097980,0.00,166.0,4.0,0,1,0,0.0
Status,,47,32,5,9,1561097980,0.00,39.0,49.0,0,1,0,0.0
Status,,47,33,5,10,1561097980,0.00,51.0,79.0,0,1,0,0.0
Status,,47,34,5,13,1561097980,0.00,175.0,10.0,0,1,0,0.0
Status,,47,35,5,20,1561097980,0.00,272.0,62.0,0,1,0,0.0
Status,,47,36,5,23,1561097980,0.00,60.0,1.0,0,1,0,0.0
Status,,47,37,5,27,1561097980,0.00,141.0,32.0,0,1,0,0.0
Status,,47,38,5,28,1561097980,0.00,86.0,24.0,0,1,0,0.0
Status,,47,39,5,30,1561097980,0.00,190.0,11.0,0,1,0,0.0
Status,,47,40,6,1,1575420030,0.00,245.0,24.0,0,1,0,0.0
Status,,47,41,6,7,1575420030,0.00,131.0,45.0,0,1,0,0.0
Status,,47,42,6,13,1575420030,0.00,138.0,9.0,0,1,0,0.0
Status,,47,43,6,19,1575420030,0.00,327.0,29.0,0,1,0,0.0
Status,,47,44,6,21,1575420030,0.00,296.0,58.0,0,1,0,0.0
Status,,47,45,6,26,1575420030,0.00,188.0,6.0,0,1,0,0.0
Status,,47,46,6,27,1575420030,0.00,18.0,37.0,0,1,0,0.0
Raw,1682122699594,66145790000000,18,,-1366091771804661897,0.08575630187988281,1003901.6008377075,19.531249873264375,293.8185814086174,10,4,0.0,16399,519517527033383,427,25.1,-107.03067779541016,1.8350000381469727,16,0.0,0.0,1575420030,,,,0,,1,4.94,21.6,0.0,0.0,,,C,65797611906356
Raw,1682122699594,66145790000000,18,,-1366091771804661897,0.08575630187988281,1003901.6008377075,19.531249873264375,293.8185814086174,10,7,0.0,16399,519517515866688,19,31.2,-209.315185546875,0.7075896859169006,16,0.0,0.0,1575420030,,,,0,,1,4.94,27.7,0.0,0.0,,,C,65797611906356
Raw,1682122699594,66145790000000,18,,-1366091771804661897,0.08575630187988281,1003901.6008377075,19.531249873264375,293.8185814086174,10,9,0.0,16399,519517523400409,370,26.7,-447.1615905761719,1.7225000858306885,16,0.0,0.0,1575420030,,,,0,,1,4.94,23.2,0.0,0.0,,,C,65797611906356
Raw,1682122699594,66145790000000,18,,-1366091771804661897,0.08575630187988281,1003901.6008377075,19.531249873264375,293.8185814086174,10,27,0.0,16399,519517521302334,24,29.0,290.2644348144531,1.037000060081482,16,0.0,0.0,1575420030,,,,0,,1,4.94,25.5,0.0,0.0,,,C,65797611906356
Raw,1682122699594,66145790000000,18,,-1366091771804661897,0.08575630187988281,1003901.6008377075,19.531249873264375,293.8185814086174,10,11,0.0,49359,11899521669859,17,32.9,352.9953308105469,0.5720000267028809,16,0.0,0.0,1602000000,,,,0,,3,1.06,28.9,3852.158447265625,22.76909828186035,,,C,65797611906356
Raw,1682122699594,66145790000000,18,,-1366091771804661897,0.08575630187988281,1003901.6008377075,19.531249873264375,293.8185814086174,10,1,0.0,49359,11899528656198,426,25.6,-275.0313415527344,1.7165000438690186,16,0.0,0.0,1602562560,,,,0,,3,1.06,21.6,3852.158447265625,22.76909828186035,,,C,65797611906356
Status,,47,0,1,4,1575420030,25.40,41.0,75.0,0,1,0,21.9
Status,,47,1,1,7,1575420030,29.80,320.0,25.0,0,1,0,26.3
Status,,47,2,1,9,1575420030,28.60,334.0,49.0,0,1,0,25.1
Status,,47,3,1,27,1575420030,30.40,61.0,35.0,0,1,0,26.9
Status,,47,4,1,1,1575420030,0.00,173.0,7.0,0,1,0,0.0
Status,,47,5,1,3,1575420030,0.00,197.0,31.0,0,1,0,0.0
Status,,47,6,1,8,1575420030,0.00,104.0,58.0,0,1,0,0.0
Status,,47,7,1,14,1575420030,0.00,237.0,14.0,0,1,0,0.0
Status,,47,8,1,16,1575420030,0.00,32.0,17.0,0,1,0,0.0
Status,,47,9,1,21,1575420030,0.00,150.0,11.0,0,1,0,0.0
Status,,47,10,1,30,1575420030,0.00,294.0,4.0,0,1,0,0.0
Status,,47,11,4,194,1575420030,0.00,49.0,24.0,0,1,0,0.0
Status,,47,12,4,195,1575420030,0.00,92.0,14.0,0,1,0,0.0
Status,,47,13,3,11,1602000000,32.70,359.0,28.0,0,1,0,28.7
Status,,47,14,3,1,1602562560,27.10,312.0,60.0,0,1,0,23.1
Status,,47,15,3,2,1599750020,0.00,332.0,7.0,0,1,0,0.0
Status,,47,16,3,13,1600875010,0.00,254.0,3.0,0,1,0,0.0
Status,,47,17,3,12,1601437440,0.00,293.0,29.0,0,1,0,0.0
Status,,47,18,3,20,1603124990,0.00,0.0,0.0,0,1,0,0.0
Status,,47,19,3,21,1604249980,0.00,105.0,18.0,0,1,0,0.0
Status,,47,20,3,7,1604812540,0.00,159.0,9.0,0,1,0,0.0
Status,,47,21,3,8,1605374980,0.00,172.0,56.0,0,1,0,0.0
Status,,47,22,5,28,1561097980,27.20,86.0,24.0,0,1,0,22.900002
Status,,47,23,5,19,1561097980,30.40,315.0,20.0,0,1,0,26.099998
Status,,47,24,5,16,1561097980,29.40,71.0,42.0,0,1,0,25.099998
Status,,47,25,5,1,1561097980,0.00,97.0,16.0,0,1,0,0.0
Status,,47,26,5,2,1561097980,0.00,165.0,73.0,0,1,0,0.0
Status,,47,27,5,3,1561097980,0.00,113.0,51.0,0,1,0,0.0
Status,,47,28,5,4,1561097980,0.00,92.0,1.0,0,1,0,0.0
Status,,47,29,5,5,1561097980,0.00,239.0,60.0,0,1,0,0.0
Status,,47,30,5,6,1561097980,0.00,65.0,45.0,0,1,0,0.0
Status,,47,31,5,7,1561097980,0.00,45.0,64.0,0,1,0,0.0
Status,,47,32,5,8,1561097980,0.00,166.0,4.0,0,1,0,0.0
Status,,47,33,5,9,1561097980,0.00,39.0,49.0,0,1,0,0.0
Status,,47,34,5,10,1561097980,0.00,51.0,79.0,0,1,0,0.0
Status,,47,35,5,13,1561097980,0.00,175.0,10.0,0,1,0,0.0
Status,,47,36,5,20,1561097980,0.00,272.0,62.0,0,1,0,0.0
Status,,47,37,5,23,1561097980,0.00,60.0,1.0,0,1,0,0.0
Status,,47,38,5,27,1561097980,0.00,141.0,32.0,0,1,0,0.0
Status,,47,39,5,30,1561097980,0.00,190.0,11.0,0,1,0,0.0
Status,,47,40,6,1,1575420030,0.00,245.0,24.0,0,1,0,0.0
Status,,47,41,6,7,1575420030,0.00,131.0,45.0,0,1,0,0.0
Status,,47,42,6,13,1575420030,0.00,138.0,9.0,0,1,0,0.0
Status,,47,43,6,19,1575420030,0.00,327.0,29.0,0,1,0,0.0
Status,,47,44,6,21,1575420030,0.00,296.0,58.0,0,1,0,0.0
Status,,47,45,6,26,1575420030,0.00,188.0,6.0,0,1,0,0.0
Status,,47,46,6,27,1575420030,0.00,18.0,37.0,0,1,0,0.0
Raw,1682122700594,66146790000000,18,,-1366091771804661841,0.47175025939941406,851.5121880918741,16.593159238142135,50.00807741751976,10,4,0.0,16399,519518527033753,433,25.4,-106.5454330444336,2.5850000381469727,16,0.0,0.0,1575420030,,,,0,,1,4.72,21.9,0.0,0.0,,,C,65798615327865
Raw,1682122700594,66146790000000,18,,-1366091771804661841,0.47175025939941406,851.5121880918741,16.593159238142135,50.00807741751976,10,7,0.0,16399,519518515867389,21,29.8,-209.42694091796875,0.06509104371070862,16,0.0,0.0,1575420030,,,,0,,1,4.72,26.3,0.0,0.0,,,C,65798615327865
Raw,1682122700594,66146790000000,18,,-1366091771804661841,0.47175025939941406,851.5121880918741,16.593159238142135,50.00807741751976,10,9,0.0,16399,519518523401923,24,28.6,-446.65435791015625,0.1750032901763916,16,0.0,0.0,1575420030,,,,0,,1,4.72,25.1,0.0,0.0,,,C,65798615327865
Raw,1682122700594,66146790000000,18,,-1366091771804661841,0.47175025939941406,851.5121880918741,16.593159238142135,50.00807741751976,10,27,0.0,16399,519518521301375,21,30.4,290.3056335449219,0.6569720506668091,16,0.0,0.0,1575420030,,,,0,,1,4.72,26.9,0.0,0.0,,,C,65798615327865
Raw,1682122700594,66146790000000,18,,-1366091771804661841,0.47175025939941406,851.5121880918741,16.593159238142135,50.00807741751976,10,11,0.0,49359,11900521668667,17,32.7,352.712158203125,0.05753232166171074,16,0.0,0.0,1602000000,,,,0,,3,1.01,28.700000000000003,3852.158447265625,22.76909828186035,,,C,65798615327865
Raw,1682122700594,66146790000000,18,,-1366091771804661841,0.47175025939941406,851.5121880918741,16.593159238142135,50.00807741751976,10,1,0.0,49359,11900528657129,327,27.1,-276.3688659667969,2.3464999198913574,16,0.0,0.0,1602562560,,,,0,,3,1.01,23.1,3852.158447265625,22.76909828186035,,,C,65798615327865
Raw,1682122700594,66146790000000,18,,-1366091771804661841,0.47175025939941406,851.5121880918741,16.593159238142135,50.00807741751976,10,28,0.0,16399,519504512409805,318,27.2,-44.764408111572266,0.8644999861717224,16,0.0,0.0,1561097980,,,,0,,5,1.11,22.9,-1544.9425048828125,27.41960906982422,,,I,65798615327865
Raw,1682122700594,66146790000000,18,,-1366091771804661841,0.47175025939941406,851.5121880918741,16.593159238142135,50.00807741751976,10,16,0.0,16399,519504469544855,484,29.4,-144.87460327148438,52.1150016784668,16,0.0,0.0,1561097980,,,,0,,5,1.11,25.099999999999998,-1544.9425048828125,27.41960906982422,,,I,65798615327865
Status,,47,0,1,4,1575420030,25.40,41.0,75.0,0,1,0,21.9
Status,,47,1,1,7,1575420030,28.20,320.0,25.0,0,1,0,24.7
Status,,47,2,1,9,1575420030,27.50,334.0,49.0,0,1,0,24.0
Status,,47,3,1,27,1575420030,31.30,61.0,35.0,0,1,0,27.8
Status,,47,4,1,1,1575420030,0.00,173.0,7.0,0,1,0,0.0
Status,,47,5,1,3,1575420030,0.00,197.0,31.0,0,1,0,0.0
Status,,47,6,1,8,1575420030,0.00,104.0,58.0,0,1,0,0.0
Status,,47,7,1,14,1575420030,0.00,237.0,14.0,0,1,0,0.0
Status,,47,8,1,16,1575420030,0.00,32.0,17.0,0,1,0,0.0
Status,,47,9,1,21,1575420030,0.00,150.0,11.0,0,1,0,0.0
Status,,47,10,1,30,1575420030,0.00,294.0,4.0,0,1,0,0.0
Status,,47,11,4,194,1575420030,0.00,49.0,24.0,0,1,0,0.0
Status,,47,12,4,195,1575420030,0.00,92.0,14.0,0,1,0,0.0
Status,,47,13,3,11,1602000000,32.20,359.0,28.0,0,1,0,28.2
Status,,47,14,3,1,1602562560,27.10,312.0,60.0,0,1,0,23.1
Status,,47,15,3,2,1599750020,0.00,332.0,7.0,0,1,0,0.0
Status,,47,16,3,13,1600875010,0.00,254.0,3.0,0,1,0,0.0
Status,,47,17,3,12,1601437440,0.00,293.0,29.0,0,1,0,0.0
Status,,47,18,3,20,1603124990,0.00,0.0,0.0,0,1,0,0.0
Status,,47,19,3,21,1604249980,0.00,105.0,18.0,0,1,0,0.0
Status,,47,20,3,7,1604812540,0.00,159.0,9.0,0,1,0,0.0
Status,,47,21,3,8,1605374980,0.00,172.0,56.0,0,1,0,0.0
Status,,47,22,5,28,1561097980,27.20,86.0,24.0,0,1,0,22.900002
Status,,47,23,5,19,1561097980,30.40,315.0,20.0,0,1,0,26.099998
Status,,47,24,5,16,1561097980,29.40,71.0,42.0,0,1,0,25.099998
Status,,47,25,5,1,1561097980,0.00,97.0,16.0,0,1,0,0.0
Status,,47,26,5,2,1561097980,0.00,165.0,73.0,0,1,0,0.0
Status,,47,27,5,3,1561097980,0.00,113.0,51.0,0,1,0,0.0
Status,,47,28,5,4,1561097980,0.00,92.0,1.0,0,1,0,0.0
Status,,47,29,5,5,1561097980,0.00,239.0,60.0,0,1,0,0.0
Status,,47,30,5,6,1561097980,0.00,65.0,45.0,0,1,0,0.0
Status,,47,31,5,7,1561097980,0.00,45.0,64.0,0,1,0,0.0
Status,,47,32,5,8,1561097980,0.00,166.0,4.0,0,1,0,0.0
Status,,47,33,5,9,1561097980,0.00,39.0,49.0,0,1,0,0.0
Status,,47,34,5,10,1561097980,0.00,51.0,79.0,0,1,0,0.0
Status,,47,35,5,13,1561097980,0.00,175.0,10.0,0,1,0,0.0
Status,,47,36,5,20,1561097980,0.00,272.0,62.0,0,1,0,0.0
Status,,47,37,5,23,1561097980,0.00,60.0,1.0,0,1,0,0.0
Status,,47,38,5,27,1561097980,0.00,141.0,32.0,0,1,0,0.0
Status,,47,39,5,30,1561097980,0.00,190.0,11.0,0,1,0,0.0
Status,,47,40,6,1,1575420030,0.00,245.0,24.0,0,1,0,0.0
Status,,47,41,6,7,1575420030,0.00,131.0,45.0,0,1,0,0.0
Status,,47,42,6,13,1575420030,0.00,138.0,9.0,0,1,0,0.0
Status,,47,43,6,19,1575420030,0.00,327.0,29.0,0,1,0,0.0
Status,,47,44,6,21,1575420030,0.00,296.0,58.0,0,1,0,0.0
Status,,47,45,6,26,1575420030,0.00,188.0,6.0,0,1,0,0.0
Status,,47,46,6,27,1575420030,0.00,18.0,37.0,0,1,0,0.0
Raw,1682122701414,66147610000000,18,,-1366091771804661784,0.0663604736328125,421.9705006107688,17.575603693161742,248.4428247198095,10,7,0.0,16399,519519335867908,27,28.2,-210.3125762939453,0.7560000419616699,16,0.0,0.0,1575420030,,,,0,,1,4.72,24.7,0.0,0.0,,,C,65799438278282
Raw,1682122701414,66147610000000,18,,-1366091771804661784,0.0663604736328125,421.9705006107688,17.575603693161742,248.4428247198095,10,9,0.0,16399,519519343403108,27,27.5,-447.6087646484375,0.8240000009536743,16,0.0,0.0,1575420030,,,,0,,1,4.72,24.0,0.0,0.0,,,C,65799438278282
Raw,1682122701414,66147610000000,18,,-1366091771804661784,0.0663604736328125,421.9705006107688,17.575603693161742,248.4428247198095,10,27,0.0,16399,519519341300594,19,31.3,289.2558898925781,0.6570000052452087,16,0.0,0.0,1575420030,,,,0,,1,4.72,27.8,0.0,0.0,,,C,65799438278282
Raw,1682122701414,66147610000000,18,,-1366091771804661784,0.0663604736328125,421.9705006107688,17.575603693161742,248.4428247198095,10,11,0.0,49359,11901341667701,17,32.2,351.66668701171875,0.6169999837875366,16,0.0,0.0,1602000000,,,,0,,3,1.01,28.200000000000003,3852.158447265625,22.76909828186035,,,C,65799438278282
Fix,GPS,12.9856662200,80.2390790600,-40.692779541015625,0.0,19.044962,,1682122702000,2.806154,,65800021064272,20.282352
Status,1682122702000,44,0,1,4,1575420030,22.70,41.0,75.0,0,1,0,19.2
Status,1682122702000,44,1,1,7,1575420030,27.80,320.0,25.0,1,1,0,24.3
Status,1682122702000,44,2,1,9,1575420030,23.50,334.0,49.0,1,1,0,20.0
Status,1682122702000,44,3,1,27,1575420030,30.50,61.0,35.0,1,1,0,27.0
Status,1682122702000,44,4,1,1,1575420030,0.00,173.0,7.0,0,1,0,0.0
Status,1682122702000,44,5,1,3,1575420030,0.00,197.0,31.0,0,1,0,0.0
Status,1682122702000,44,6,1,8,1575420030,0.00,104.0,58.0,0,1,0,0.0
Status,1682122702000,44,7,1,14,1575420030,0.00,237.0,14.0,0,1,0,0.0
Status,1682122702000,44,8,1,16,1575420030,0.00,32.0,17.0,0,1,0,0.0
Status,1682122702000,44,9,1,21,1575420030,0.00,150.0,11.0,0,1,0,0.0
Status,1682122702000,44,10,1,30,1575420030,0.00,294.0,4.0,0,1,0,0.0
Status,1682122702000,44,11,4,194,1575420030,0.00,49.0,24.0,0,1,0,0.0
Status,1682122702000,44,12,4,195,1575420030,0.00,92.0,14.0,0,1,0,0.0
Status,1682122702000,44,13,3,11,1602000000,29.30,359.0,28.0,1,1,0,25.3
Status,1682122702000,44,14,3,1,1602562560,28.70,312.0,60.0,0,1,0,24.7
Status,1682122702000,44,15,3,2,1599750020,0.00,332.0,7.0,0,1,0,0.0
Status,1682122702000,44,16,3,13,1600875010,0.00,254.0,3.0,0,1,0,0.0
Status,1682122702000,44,17,3,12,1601437440,0.00,293.0,29.0,0,1,0,0.0
Status,1682122702000,44,18,3,20,1603124990,0.00,0.0,0.0,0,1,0,0.0
Status,1682122702000,44,19,3,21,1604249980,0.00,104.0,18.0,0,1,0,0.0
Status,1682122702000,44,20,3,7,1604812540,0.00,159.0,9.0,0,1,0,0.0
Status,1682122702000,44,21,3,8,1605374980,0.00,172.0,56.0,0,1,0,0.0
Status,1682122702000,44,22,5,28,1561097980,25.30,86.0,24.0,0,1,0,21.0
Status,1682122702000,44,23,5,6,1561097980,29.10,65.0,45.0,0,1,0,24.8
Status,1682122702000,44,24,5,1,1561097980,0.00,97.0,16.0,0,1,0,0.0
Status,1682122702000,44,25,5,2,1561097980,0.00,165.0,73.0,0,1,0,0.0
Status,1682122702000,44,26,5,3,1561097980,0.00,113.0,51.0,0,1,0,0.0
Status,1682122702000,44,27,5,5,1561097980,0.00,239.0,60.0,0,1,0,0.0
Status,1682122702000,44,28,5,7,1561097980,0.00,45.0,64.0,0,1,0,0.0
Status,1682122702000,44,29,5,9,1561097980,0.00,39.0,49.0,0,1,0,0.0
Status,1682122702000,44,30,5,10,1561097980,0.00,51.0,79.0,0,1,0,0.0
Status,1682122702000,44,31,5,13,1561097980,0.00,175.0,10.0,0,1,0,0.0
Status,1682122702000,44,32,5,16,1561097980,0.00,71.0,42.0,0,1,0,0.0
Status,1682122702000,44,33,5,19,1561097980,0.00,315.0,20.0,0,1,0,0.0
Status,1682122702000,44,34,5,20,1561097980,0.00,272.0,62.0,0,1,0,0.0
Status,1682122702000,44,35,5,27,1561097980,0.00,141.0,32.0,0,1,0,0.0
Status,1682122702000,44,36,5,30,1561097980,0.00,190.0,11.0,0,1,0,0.0
Status,1682122702000,44,37,6,27,1575420030,26.60,18.0,37.0,0,1,0,22.3
Status,1682122702000,44,38,6,1,1575420030,0.00,245.0,24.0,0,1,0,0.0
Status,1682122702000,44,39,6,7,1575420030,0.00,131.0,45.0,0,1,0,0.0
Status,1682122702000,44,40,6,13,1575420030,0.00,138.0,9.0,0,1,0,0.0
Status,1682122702000,44,41,6,19,1575420030,0.00,327.0,29.0,0,1,0,0.0
Status,1682122702000,44,42,6,21,1575420030,0.00,296.0,58.0,0,1,0,0.0
Status,1682122702000,44,43,6,26,1575420030,0.00,188.0,6.0,0,1,0,0.0
Raw,1682122702414,66148610000000,18,,-1366091771804661740,0.024785995483398438,232.1553329238668,15.899590255218936,47.38851183782689,10,4,0.0,16399,519520347034479,53,22.7,-109.05731201171875,1.0880000591278076,16,0.0,0.0,1575420030,,,,0,,1,4.51,19.2,0.0,0.0,,,C,65800436496094
Raw,1682122702414,66148610000000,18,,-1366091771804661740,0.024785995483398438,232.1553329238668,15.899590255218936,47.38851183782689,10,7,0.0,16399,519520335868642,27,27.8,-211.55899047851562,0.6559999585151672,16,0.0,0.0,1575420030,,,,0,,1,4.51,24.3,0.0,0.0,,,C,65800436496094
Raw,1682122702414,66148610000000,18,,-1366091771804661740,0.024785995483398438,232.1553329238668,15.899590255218936,47.38851183782689,10,9,0.0,16399,519520343404604,46,23.5,-448.836181640625,0.9239999651908875,16,0.0,0.0,1575420030,,,,0,,1,4.51,20.0,0.0,0.0,,,C,65800436496094
Raw,1682122702414,66148610000000,18,,-1366091771804661740,0.024785995483398438,232.1553329238668,15.899590255218936,47.38851183782689,10,27,0.0,16399,519520341299643,19,30.5,288.0218811035156,0.06770867854356766,16,0.0,0.0,1575420030,,,,0,,1,4.51,27.0,0.0,0.0,,,C,65800436496094
Raw,1682122702414,66148610000000,18,,-1366091771804661740,0.024785995483398438,232.1553329238668,15.899590255218936,47.38851183782689,10,11,0.0,49359,11902341666601,24,29.3,350.2033386230469,0.6631513833999634,16,0.0,0.0,1602000000,,,,0,,3,1.72,25.3,3852.158447265625,22.76909828186035,,,C,65800436496094
Raw,1682122702414,66148610000000,18,,-1366091771804661740,0.024785995483398438,232.1553329238668,15.899590255218936,47.38851183782689,10,1,0.0,49359,11902348658938,27,28.7,-278.828857421875,0.7065000534057617,16,0.0,0.0,1602562560,,,,0,,3,1.72,24.7,3852.158447265625,22.76909828186035,,,C,65800436496094
Raw,1682122702414,66148610000000,18,,-1366091771804661740,0.024785995483398438,232.1553329238668,15.899590255218936,47.38851183782689,10,28,0.0,16399,519506332410089,40,25.3,-48.16350555419922,0.8704999685287476,16,0.0,0.0,1561097980,,,,0,,5,1.11,21.0,-1544.9425048828125,27.41960906982422,,,I,65800436496094
Raw,1682122702414,66148610000000,18,,-1366091771804661740,0.024785995483398438,232.1553329238668,15.899590255218936,47.38851183782689,10,6,0.0,16399,519506290089416,27,29.1,-135.109375,0.6635000109672546,16,0.0,0.0,1561097980,,,,0,,5,1.11,24.8,-1544.9425048828125,27.41960906982422,,,I,65800436496094
Raw,1682122702414,66148610000000,18,,-1366091771804661740,0.024785995483398438,232.1553329238668,15.899590255218936,47.38851183782689,10,27,0.0,23567,519520330221018,35,26.6,392.5091247558594,2.3900763988494873,16,0.0,0.0,1575420030,,,,0,,6,4.76,22.3,-1489.37158203125,44.63364791870117,,,C,65800436496094
Fix,GPS,12.9857931900,80.2391266700,-43.452850341796875,0.0,15.473049,,1682122703000,2.7131164,,65801021669740,16.573875
Status,1682122703000,44,0,1,4,1575420030,20.90,41.0,75.0,1,1,0,17.4
Status,1682122703000,44,1,1,7,1575420030,25.00,320.0,25.0,1,1,0,21.5
Status,1682122703000,44,2,1,9,1575420030,23.50,334.0,49.0,1,1,0,20.0
Status,1682122703000,44,3,1,27,1575420030,32.00,61.0,35.0,1,1,0,28.5
Status,1682122703000,44,4,1,1,1575420030,0.00,173.0,7.0,0,1,0,0.0
Status,1682122703000,44,5,1,3,1575420030,0.00,197.0,31.0,0,1,0,0.0
Status,1682122703000,44,6,1,8,1575420030,0.00,104.0,58.0,0,1,0,0.0
Status,1682122703000,44,7,1,14,1575420030,0.00,237.0,14.0,0,1,0,0.0
Status,1682122703000,44,8,1,16,1575420030,0.00,32.0,17.0,0,1,0,0.0
Status,1682122703000,44,9,1,21,1575420030,0.00,150.0,11.0,0,1,0,0.0
Status,1682122703000,44,10,1,30,1575420030,0.00,294.0,4.0,0,1,0,0.0
Status,1682122703000,44,11,4,194,1575420030,0.00,49.0,24.0,0,1,0,0.0
Status,1682122703000,44,12,4,195,1575420030,0.00,92.0,14.0,0,1,0,0.0
Status,1682122703000,44,13,3,12,1601437440,21.50,293.0,29.0,0,1,0,17.5
Status,1682122703000,44,14,3,11,1602000000,25.40,359.0,28.0,1,1,0,21.4
Status,1682122703000,44,15,3,1,1602562560,24.80,312.0,60.0,1,1,0,20.8
Status,1682122703000,44,16,3,2,1599750020,0.00,332.0,7.0,0,1,0,0.0
Status,1682122703000,44,17,3,13,1600875010,0.00,254.0,3.0,0,1,0,0.0
Status,1682122703000,44,18,3,20,1603124990,0.00,0.0,0.0,0,1,0,0.0
Status,1682122703000,44,19,3,21,1604249980,0.00,104.0,18.0,0,1,0,0.0
Status,1682122703000,44,20,3,7,1604812540,0.00,159.0,9.0,0,1,0,0.0
Status,1682122703000,44,21,3,8,1605374980,0.00,172.0,56.0,0,1,0,0.0
Status,1682122703000,44,22,5,28,1561097980,26.80,86.0,24.0,0,1,0,22.5
Status,1682122703000,44,23,5,19,1561097980,33.10,315.0,20.0,0,1,0,28.8
Status,1682122703000,44,24,5,16,1561097980,28.40,71.0,42.0,0,1,0,24.099998
Status,1682122703000,44,25,5,6,1561097980,27.00,65.0,45.0,1,1,0,22.7
Status,1682122703000,44,26,5,1,1561097980,0.00,97.0,16.0,0,1,0,0.0
Status,1682122703000,44,27,5,2,1561097980,0.00,165.0,73.0,0,1,0,0.0
Status,1682122703000,44,28,5,3,1561097980,0.00,113.0,51.0,0,1,0,0.0
Status,1682122703000,44,29,5,5,1561097980,0.00,239.0,60.0,0,1,0,0.0
Status,1682122703000,44,30,5,7,1561097980,0.00,45.0,64.0,0,1,0,0.0
Status,1682122703000,44,31,5,9,1561097980,0.00,39.0,49.0,0,1,0,0.0
Status,1682122703000,44,32,5,10,1561097980,0.00,51.0,79.0,0,1,0,0.0
Status,1682122703000,44,33,5,13,1561097980,0.00,175.0,10.0,0,1,0,0.0
Status,1682122703000,44,34,5,20,1561097980,0.00,272.0,62.0,0,1,0,0.0
Status,1682122703000,44,35,5,27,1561097980,0.00,141.0,32.0,0,1,0,0.0
Status,1682122703000,44,36,5,30,1561097980,0.00,190.0,11.0,0,1,0,0.0
Status,1682122703000,44,37,6,27,1575420030,23.90,18.0,37.0,1,1,0,19.599998
Status,1682122703000,44,38,6,1,1575420030,0.00,245.0,24.0,0,1,0,0.0
Status,1682122703000,44,39,6,7,1575420030,0.00,131.0,45.0,0,1,0,0.0
Status,1682122703000,44,40,6,13,1575420030,0.00,138.0,9.0,0,1,0,0.0
Status,1682122703000,44,41,6,19,1575420030,0.00,327.0,29.0,0,1,0,0.0
Status,1682122703000,44,42,6,21,1575420030,0.00,296.0,58.0,0,1,0,0.0
Status,1682122703000,44,43,6,26,1575420030,0.00,188.0,6.0,0,1,0,0.0
Raw,1682122703414,66149610000000,18,,-1366091771804661712,0.9628410339355469,192.40815890952945,12.188957864142816,32.670907844797426,10,4,0.0,16399,519521347034938,70,20.9,-110.42741394042969,1.1829999685287476,16,0.0,0.0,1575420030,,,,0,,1,4.51,17.4,0.0,0.0,,,C,65801442365730
Raw,1682122703414,66149610000000,18,,-1366091771804661712,0.9628410339355469,192.40815890952945,12.188957864142816,32.670907844797426,10,7,0.0,16399,519521335869409,40,25.0,-213.5,0.7910000085830688,16,0.0,0.0,1575420030,,,,0,,1,4.51,21.5,0.0,0.0,,,C,65801442365730
Raw,1682122703414,66149610000000,18,,-1366091771804661712,0.9628410339355469,192.40815890952945,12.188957864142816,32.670907844797426,10,27,0.0,16399,519521341298697,17,32.0,286.5916442871094,0.05779437720775604,16,0.0,0.0,1575420030,,,,0,,1,4.51,28.5,0.0,0.0,,,C,65801442365730
Raw,1682122703414,66149610000000,18,,-1366091771804661712,0.9628410339355469,192.40815890952945,12.188957864142816,32.670907844797426,10,12,0.0,49359,11903341963234,70,21.5,32.002197265625,1.6929999589920044,16,0.0,0.0,1601437440,,,,0,,3,1.06,17.5,3852.158447265625,22.76909828186035,,,C,65801442365730
Raw,1682122703414,66149610000000,18,,-1366091771804661712,0.9628410339355469,192.40815890952945,12.188957864142816,32.670907844797426,10,11,0.0,49359,11903341665395,40,25.4,349.5801086425781,0.8119999766349792,16,0.0,0.0,1602000000,,,,0,,3,1.06,21.4,3852.158447265625,22.76909828186035,,,C,65801442365730
Raw,1682122703414,66149610000000,18,,-1366091771804661712,0.9628410339355469,192.40815890952945,12.188957864142816,32.670907844797426,10,1,0.0,49359,11903348660066,46,24.8,-280.8398742675781,0.8614999651908875,16,0.0,0.0,1602562560,,,,0,,3,1.06,20.8,3852.158447265625,22.76909828186035,,,C,65801442365730
Raw,1682122703414,66149610000000,18,,-1366091771804661712,0.9628410339355469,192.40815890952945,12.188957864142816,32.670907844797426,10,28,0.0,16399,519507332410229,35,26.8,-48.134700775146484,0.7354999780654907,16,0.0,0.0,1561097980,,,,0,,5,1.29,22.5,-1544.9425048828125,27.41960906982422,,,I,65801442365730
Raw,1682122703414,66149610000000,18,,-1366091771804661712,0.9628410339355469,192.40815890952945,12.188957864142816,32.670907844797426,10,19,0.0,16399,519507330304447,17,33.1,-447.9129333496094,0.7015000581741333,16,0.0,0.0,1561097980,,,,0,,5,1.29,28.8,-1544.9425048828125,27.41960906982422,,,I,65801442365730
Raw,1682122703414,66149610000000,18,,-1366091771804661712,0.9628410339355469,192.40815890952945,12.188957864142816,32.670907844797426,10,16,0.0,16399,519507289546220,27,28.4,-146.670166015625,0.6299999952316284,16,0.0,0.0,1561097980,,,,0,,5,1.29,24.099999999999998,-1544.9425048828125,27.41960906982422,,,I,65801442365730
Raw,1682122703414,66149610000000,18,,-1366091771804661712,0.9628410339355469,192.40815890952945,12.188957864142816,32.670907844797426,10,6,0.0,16399,519507290089903,35,27.0,-136.75132751464844,0.6784999966621399,16,0.0,0.0,1561097980,,,,0,,5,1.29,22.7,-1544.9425048828125,27.41960906982422,,,I,65801442365730
Raw,1682122703414,66149610000000,18,,-1366091771804661712,0.9628410339355469,192.40815890952945,12.188957864142816,32.670907844797426,10,27,0.0,23567,519521330219692,53,23.9,391.1528625488281,1.2578426599502563,16,0.0,0.0,1575420030,,,,0,,6,4.75,19.599999999999998,-1489.37158203125,44.63364791870117,,,C,65801442365730
Fix,GPS,12.9857023800,80.2390908700,-35.4254150390625,0.0,17.220943,,1682122704000,1.1754574,,65802021468177,19.345978
Status,1682122704000,43,0,1,4,1575420030,22.40,41.0,75.0,1,1,0,18.9
Status,1682122704000,43,1,1,7,1575420030,21.00,320.0,25.0,1,1,0,17.5
Status,1682122704000,43,2,1,9,1575420030,19.70,334.0,49.0,1,1,0,16.2
Status,1682122704000,43,3,1,27,1575420030,31.90,61.0,35.0,1,1,0,28.4
Status,1682122704000,43,4,1,1,1575420030,0.00,173.0,7.0,0,1,0,0.0
Status,1682122704000,43,5,1,3,1575420030,0.00,197.0,31.0,0,1,0,0.0
Status,1682122704000,43,6,1,8,1575420030,0.00,104.0,58.0,0,1,0,0.0
Status,1682122704000,43,7,1,14,1575420030,0.00,237.0,14.0,0,1,0,0.0
Status,1682122704000,43,8,1,16,1575420030,0.00,32.0,17.0,0,1,0,0.0
Status,1682122704000,43,9,1,21,1575420030,0.00,150.0,11.0,0,1,0,0.0
Status,1682122704000,43,10,1,30,1575420030,0.00,294.0,4.0,0,1,0,0.0
Status,1682122704000,43,11,4,194,1575420030,0.00,49.0,24.0,0,1,0,0.0
Status,1682122704000,43,12,4,195,1575420030,0.00,92.0,14.0,0,1,0,0.0
Status,1682122704000,43,13,3,12,1601437440,21.50,293.0,29.0,1,1,0,17.5
Status,1682122704000,43,14,3,11,1602000000,30.40,359.0,28.0,1,1,0,26.4
Status,1682122704000,43,15,3,1,1602562560,23.70,312.0,60.0,1,1,0,19.7
Status,1682122704000,43,16,3,2,1599750020,0.00,332.0,7.0,0,1,0,0.0
Status,1682122704000,43,17,3,13,1600875010,0.00,254.0,3.0,0,1,0,0.0
Status,1682122704000,43,18,3,21,1604249980,0.00,104.0,18.0,0,1,0,0.0
Status,1682122704000,43,19,3,7,1604812540,0.00,159.0,9.0,0,1,0,0.0
Status,1682122704000,43,20,3,8,1605374980,0.00,172.0,56.0,0,1,0,0.0
Status,1682122704000,43,21,5,28,1561097980,25.30,86.0,24.0,0,1,0,21.0
Status,1682122704000,43,22,5,19,1561097980,32.30,315.0,20.0,0,1,0,28.0
Status,1682122704000,43,23,5,16,1561097980,24.30,71.0,42.0,1,1,0,20.0
Status,1682122704000,43,24,5,9,1561097980,25.60,39.0,49.0,0,1,0,21.3
Status,1682122704000,43,25,5,6,1561097980,25.60,65.0,45.0,1,1,0,21.3
Status,1682122704000,43,26,5,1,1561097980,0.00,97.0,16.0,0,1,0,0.0
Status,1682122704000,43,27,5,2,1561097980,0.00,165.0,73.0,0,1,0,0.0
Status,1682122704000,43,28,5,3,1561097980,0.00,113.0,51.0,0,1,0,0.0
Status,1682122704000,43,29,5,5,1561097980,0.00,239.0,60.0,0,1,0,0.0
Status,1682122704000,43,30,5,7,1561097980,0.00,45.0,64.0,0,1,0,0.0
Status,1682122704000,43,31,5,10,1561097980,0.00,51.0,79.0,0,1,0,0.0
Status,1682122704000,43,32,5,13,1561097980,0.00,175.0,10.0,0,1,0,0.0
Status,1682122704000,43,33,5,20,1561097980,0.00,272.0,62.0,0,1,0,0.0
Status,1682122704000,43,34,5,27,1561097980,0.00,141.0,32.0,0,1,0,0.0
Status,1682122704000,43,35,5,30,1561097980,0.00,190.0,11.0,0,1,0,0.0
Status,1682122704000,43,36,6,21,1575420030,21.10,296.0,58.0,0,1,0,16.8
Status,1682122704000,43,37,6,27,1575420030,26.30,18.0,37.0,1,1,0,22.0
Status,1682122704000,43,38,6,1,1575420030,0.00,245.0,24.0,0,1,0,0.0
Status,1682122704000,43,39,6,7,1575420030,0.00,131.0,45.0,0,1,0,0.0
Status,1682122704000,43,40,6,13,1575420030,0.00,138.0,9.0,0,1,0,0.0
Status,1682122704000,43,41,6,19,1575420030,0.00,327.0,29.0,0,1,0,0.0
Status,1682122704000,43,42,6,26,1575420030,0.00,188.0,6.0,0,1,0,0.0
Raw,1682122704414,66150610000000,18,,-1366091771804661723,0.8167724609375,209.27743753418326,6.6732764631336625,28.803203123756173,10,4,0.0,16399,519522347035142,61,22.4,-110.88412475585938,1.0130000114440918,16,0.0,0.0,1575420030,,,,0,,1,4.46,18.9,0.0,0.0,,,C,65802434156823
Raw,1682122704414,66150610000000,18,,-1366091771804661723,0.8167724609375,209.27743753418326,6.6732764631336625,28.803203123756173,10,7,0.0,16399,519522335870122,70,21.0,-214.52755737304688,1.0809999704360962,16,0.0,0.0,1575420030,,,,0,,1,4.46,17.5,0.0,0.0,,,C,65802434156823
Raw,1682122704414,66150610000000,18,,-1366091771804661723,0.8167724609375,209.27743753418326,6.6732764631336625,28.803203123756173,10,9,0.0,16399,519522343407599,80,19.7,-450.76763916015625,1.9510000944137573,16,0.0,0.0,1575420030,,,,0,,1,4.46,16.2,0.0,0.0,,,C,65802434156823
Raw,1682122704414,66150610000000,18,,-1366091771804661723,0.8167724609375,209.27743753418326,6.6732764631336625,28.803203123756173,10,27,0.0,16399,519522341297772,17,31.9,286.1630859375,0.05779437720775604,16,0.0,0.0,1575420030,,,,0,,1,4.46,28.4,0.0,0.0,,,C,65802434156823
Raw,1682122704414,66150610000000,18,,-1366091771804661723,0.8167724609375,209.27743753418326,6.6732764631336625,28.803203123756173,10,11,0.0,49359,11904341664191,21,30.4,348.0706481933594,1.7695869207382202,16,0.0,0.0,1602000000,,,,0,,3,0.96,26.4,3852.158447265625,22.76909828186035,,,C,65802434156823
Raw,1682122704414,66150610000000,18,,-1366091771804661723,0.8167724609375,209.27743753418326,6.6732764631336625,28.803203123756173,10,1,0.0,49359,11904348660920,53,23.7,-280.8211669921875,0.9314999580383301,16,0.0,0.0,1602562560,,,,0,,3,0.96,19.7,3852.158447265625,22.76909828186035,,,C,65802434156823
Raw,1682122704414,66150610000000,18,,-1366091771804661723,0.8167724609375,209.27743753418326,6.6732764631336625,28.803203123756173,10,28,0.0,16399,519508332410430,40,25.3,-50.035892486572266,0.7954999804496765,16,0.0,0.0,1561097980,,,,0,,5,1.27,21.0,-1544.9425048828125,27.41960906982422,,,I,65802434156823
Raw,1682122704414,66150610000000,18,,-1366091771804661723,0.8167724609375,209.27743753418326,6.6732764631336625,28.803203123756173,10,19,0.0,16399,519508330305956,17,32.3,-448.89324951171875,0.0594392791390419,16,0.0,0.0,1561097980,,,,0,,5,1.27,27.999999999999996,-1544.9425048828125,27.41960906982422,,,I,65802434156823
Raw,1682122704414,66150610000000,18,,-1366091771804661723,0.8167724609375,209.27743753418326,6.6732764631336625,28.803203123756173,10,16,0.0,16399,519508289546738,46,24.3,-147.14065551757812,0.8600000143051147,16,0.0,0.0,1561097980,,,,0,,5,1.27,20.0,-1544.9425048828125,27.41960906982422,,,I,65802434156823
Raw,1682122704414,66150610000000,18,,-1366091771804661723,0.8167724609375,209.27743753418326,6.6732764631336625,28.803203123756173,10,9,0.0,16399,519508291381430,40,25.6,-171.35682678222656,2.1679999828338623,16,0.0,0.0,1561097980,,,,0,,5,1.27,21.3,-1544.9425048828125,27.41960906982422,,,I,65802434156823
Raw,1682122704414,66150610000000,18,,-1366091771804661723,0.8167724609375,209.27743753418326,6.6732764631336625,28.803203123756173,10,6,0.0,16399,519508290090343,40,25.6,-136.8857421875,0.7985000014305115,16,0.0,0.0,1561097980,,,,0,,5,1.27,21.3,-1544.9425048828125,27.41960906982422,,,I,65802434156823
Raw,1682122704414,66150610000000,18,,-1366091771804661723,0.8167724609375,209.27743753418326,6.6732764631336625,28.803203123756173,10,21,0.0,23567,519522334100133,80,21.1,79.42857360839844,2.4685001373291016,16,0.0,0.0,1575420030,,,,0,,6,4.68,16.8,-1489.37158203125,44.63364791870117,,,C,65802434156823
Raw,1682122704414,66150610000000,18,,-1366091771804661723,0.8167724609375,209.27743753418326,6.6732764631336625,28.803203123756173,10,27,0.0,23567,519522330218399,35,26.3,390.53338623046875,0.6024332046508789,16,0.0,0.0,1575420030,,,,0,,6,4.68,22.0,-1489.37158203125,44.63364791870117,,,C,65802434156823
Fix,GPS,12.9856134200,80.2390896900,-47.51116943359375,0.0,15.000477,,1682122705000,0.9024965,,65803021565364,17.253235
Status,1682122705000,43,0,1,4,1575420030,21.20,41.0,75.0,1,1,0,17.7
Status,1682122705000,43,1,1,7,1575420030,26.00,320.0,25.0,1,1,0,22.5
Status,1682122705000,43,2,1,9,1575420030,27.70,334.0,49.0,1,1,0,24.2
Status,1682122705000,43,3,1,27,1575420030,34.10,61.0,35.0,1,1,0,30.599998
Status,1682122705000,43,4,1,1,1575420030,0.00,173.0,7.0,0,1,0,0.0
Status,1682122705000,43,5,1,3,1575420030,0.00,197.0,31.0,0,1,0,0.0
Status,1682122705000,43,6,1,8,1575420030,0.00,104.0,58.0,0,1,0,0.0
Status,1682122705000,43,7,1,14,1575420030,0.00,237.0,14.0,0,1,0,0.0
Status,1682122705000,43,8,1,16,1575420030,0.00,32.0,17.0,0,1,0,0.0
Status,1682122705000,43,9,1,21,1575420030,0.00,150.0,11.0,0,1,0,0.0
Status,1682122705000,43,10,1,30,1575420030,0.00,294.0,4.0,0,1,0,0.0
Status,1682122705000,43,11,4,194,1575420030,0.00,49.0,24.0,0,1,0,0.0
Status,1682122705000,43,12,4,195,1575420030,0.00,92.0,14.0,0,1,0,0.0
Status,1682122705000,43,13,3,12,1601437440,20.50,293.0,29.0,1,1,0,16.5
Status,1682122705000,43,14,3,11,1602000000,32.20,359.0,28.0,1,1,0,28.2
Status,1682122705000,43,15,3,1,1602562560,23.70,312.0,60.0,1,1,0,19.7
Status,1682122705000,43,16,3,2,1599750020,0.00,332.0,7.0,0,1,0,0.0
Status,1682122705000,43,17,3,13,1600875010,0.00,254.0,3.0,0,1,0,0.0
Status,1682122705000,43,18,3,21,1604249980,0.00,104.0,18.0,0,1,0,0.0
Status,1682122705000,43,19,3,7,1604812540,0.00,159.0,9.0,0,1,0,0.0
Status,1682122705000,43,20,3,8,1605374980,0.00,172.0,56.0,0,1,0,0.0
Status,1682122705000,43,21,5,28,1561097980,23.70,86.0,24.0,0,1,0,19.400002
Status,1682122705000,43,22,5,19,1561097980,31.30,315.0,20.0,0,1,0,27.0
Status,1682122705000,43,23,5,16,1561097980,25.80,71.0,42.0,1,1,0,21.5
Status,1682122705000,43,24,5,9,1561097980,31.00,39.0,49.0,1,1,0,26.7
Status,1682122705000,43,25,5,6,1561097980,27.00,65.0,45.0,1,1,0,22.7
Status,1682122705000,43,26,5,1,1561097980,0.00,97.0,16.0,0,1,0,0.0
Status,1682122705000,43,27,5,2,1561097980,0.00,165.0,73.0,0,1,0,0.0
Status,1682122705000,43,28,5,3,1561097980,0.00,113.0,51.0,0,1,0,0.0
Status,1682122705000,43,29,5,5,1561097980,0.00,239.0,60.0,0,1,0,0.0
Status,1682122705000,43,30,5,7,1561097980,0.00,45.0,64.0,0,1,0,0.0
Status,1682122705000,43,31,5,10,1561097980,0.00,51.0,79.0,0,1,0,0.0
Status,1682122705000,43,32,5,13,1561097980,0.00,175.0,10.0,0,1,0,0.0
Status,1682122705000,43,33,5,20,1561097980,0.00,272.0,62.0,0,1,0,0.0
Status,1682122705000,43,34,5,27,1561097980,0.00,141.0,32.0,0,1,0,0.0
Status,1682122705000,43,35,5,30,1561097980,0.00,190.0,11.0,0,1,0,0.0
Status,1682122705000,43,36,6,19,1575420030,20.20,327.0,29.0,0,1,0,15.900001
Status,1682122705000,43,37,6,21,1575420030,21.10,296.0,58.0,1,1,0,16.8
Status,1682122705000,43,38,6,27,1575420030,27.00,18.0,37.0,1,1,0,22.7
Status,1682122705000,43,39,6,1,1575420030,0.00,245.0,24.0,0,1,0,0.0
Status,1682122705000,43,40,6,7,1575420030,0.00,131.0,45.0,0,1,0,0.0
Status,1682122705000,43,41,6,13,1575420030,0.00,138.0,9.0,0,1,0,0.0
Status,1682122705000,43,42,6,26,1575420030,0.00,188.0,6.0,0,1,0,0.0
Raw,1682122705414,66151610000000,18,,-1366091771804661761,0.2227649688720703,185.87252998258919,4.671215825457132,23.81050340818295,10,4,0.0,16399,519523347035408,70,21.2,-109.21905517578125,1.0929999351501465,16,0.0,0.0,1575420030,,,,0,,1,4.67,17.7,0.0,0.0,,,C,65803434447500
Raw,1682122705414,66151610000000,18,,-1366091771804661761,0.2227649688720703,185.87252998258919,4.671215825457132,23.81050340818295,10,7,0.0,16399,519523335870798,35,26.0,-213.2145538330078,0.7310000061988831,16,0.0,0.0,1575420030,,,,0,,1,4.67,22.5,0.0,0.0,,,C,65803434447500
Raw,1682122705414,66151610000000,18,,-1366091771804661761,0.2227649688720703,185.87252998258919,4.671215825457132,23.81050340818295,10,9,0.0,16399,519523343409115,27,27.7,-449.4736328125,0.6889999508857727,16,0.0,0.0,1575420030,,,,0,,1,4.67,24.2,0.0,0.0,,,C,65803434447500
Raw,1682122705414,66151610000000,18,,-1366091771804661761,0.2227649688720703,185.87252998258919,4.671215825457132,23.81050340818295,10,27,0.0,16399,519523341296794,14,34.1,287.44219970703125,0.05149565637111664,16,0.0,0.0,1575420030,,,,0,,1,4.67,30.6,0.0,0.0,,,C,65803434447500
Raw,1682122705414,66151610000000,18,,-1366091771804661761,0.2227649688720703,185.87252998258919,4.671215825457132,23.81050340818295,10,12,0.0,49359,11905341963148,80,20.5,29.980417251586914,1.8580000400543213,16,0.0,0.0,1601437440,,,,0,,3,1.07,16.5,3852.158447265625,22.76909828186035,,,C,65803434447500
Raw,1682122705414,66151610000000,18,,-1366091771804661761,0.2227649688720703,185.87252998258919,4.671215825457132,23.81050340818295,10,11,0.0,49359,11905341663020,17,32.2,349.17919921875,0.05753232166171074,16,0.0,0.0,1602000000,,,,0,,3,1.07,28.200000000000003,3852.158447265625,22.76909828186035,,,C,65803434447500
Raw,1682122705414,66151610000000,18,,-1366091771804661761,0.2227649688720703,185.87252998258919,4.671215825457132,23.81050340818295,10,28,0.0,16399,519509332410547,53,23.7,-47.93305969238281,0.9254999756813049,16,0.0,0.0,1561097980,,,,0,,5,1.11,19.4,-1544.9425048828125,27.41960906982422,,,I,65803434447500
Raw,1682122705414,66151610000000,18,,-1366091771804661761,0.2227649688720703,185.87252998258919,4.671215825457132,23.81050340818295,10,19,0.0,16399,519509330307461,19,31.3,-447.7022705078125,0.054444536566734314,16,0.0,0.0,1561097980,,,,0,,5,1.11,27.0,-1544.9425048828125,27.41960906982422,,,I,65803434447500
Raw,1682122705414,66151610000000,18,,-1366091771804661761,0.2227649688720703,185.87252998258919,4.671215825457132,23.81050340818295,10,16,0.0,16399,519509289547229,40,25.8,-146.42051696777344,0.7999999523162842,16,0.0,0.0,1561097980,,,,0,,5,1.11,21.5,-1544.9425048828125,27.41960906982422,,,I,65803434447500
Raw,1682122705414,66151610000000,18,,-1366091771804661761,0.2227649688720703,185.87252998258919,4.671215825457132,23.81050340818295,10,9,0.0,16399,519509291382014,21,31.0,-170.151123046875,1.2237324714660645,16,0.0,0.0,1561097980,,,,0,,5,1.11,26.7,-1544.9425048828125,27.41960906982422,,,I,65803434447500
Raw,1682122705414,66151610000000,18,,-1366091771804661761,0.2227649688720703,185.87252998258919,4.671215825457132,23.81050340818295,10,6,0.0,16399,519509290090797,35,27.0,-135.6278839111328,0.6784999966621399,16,0.0,0.0,1561097980,,,,0,,5,1.11,22.7,-1544.9425048828125,27.41960906982422,,,I,65803434447500
Raw,1682122705414,66151610000000,18,,-1366091771804661761,0.2227649688720703,185.87252998258919,4.671215825457132,23.81050340818295,10,19,0.0,23567,519523325342615,92,20.2,-468.03680419921875,3.307000160217285,16,0.0,0.0,1575420030,,,,0,,6,4.9,15.899999999999999,-1472.67333984375,39.653385162353516,,,C,65803434447500
Raw,1682122705414,66151610000000,18,,-1366091771804661761,0.2227649688720703,185.87252998258919,4.671215825457132,23.81050340818295,10,27,0.0,23567,519523330217067,35,27.0,391.7021789550781,0.03155222907662392,16,0.0,0.0,1575420030,,,,0,,6,4.9,22.7,-1472.67333984375,39.653385162353516,,,C,65803434447500
Fix,GPS,12.9855135800,80.2390776600,-60.04974365234375,0.0,13.359964,,1682122706000,0.34885526,,65804020860000,15.293828
Status,1682122706000,43,0,1,4,1575420030,21.20,41.0,75.0,1,1,0,17.7
Status,1682122706000,43,1,1,7,1575420030,25.10,320.0,25.0,1,1,0,21.6
Status,1682122706000,43,2,1,9,1575420030,25.70,334.0,49.0,1,1,0,22.2
Status,1682122706000,43,3,1,27,1575420030,33.60,61.0,35.0,1,1,0,30.099998
Status,1682122706000,43,4,1,1,1575420030,0.00,173.0,7.0,0,1,0,0.0
Status,1682122706000,43,5,1,3,1575420030,0.00,197.0,31.0,0,1,0,0.0
Status,1682122706000,43,6,1,8,1575420030,0.00,104.0,58.0,0,1,0,0.0
Status,1682122706000,43,7,1,14,1575420030,0.00,237.0,14.0,0,1,0,0.0
Status,1682122706000,43,8,1,16,1575420030,0.00,32.0,17.0,0,1,0,0.0
Status,1682122706000,43,9,1,21,1575420030,0.00,150.0,11.0,0,1,0,0.0
Status,1682122706000,43,10,1,30,1575420030,0.00,294.0,4.0,0,1,0,0.0
Status,1682122706000,43,11,4,194,1575420030,0.00,49.0,24.0,0,1,0,0.0
Status,1682122706000,43,12,4,195,1575420030,0.00,92.0,14.0,0,1,0,0.0
Status,1682122706000,43,13,3,12,1601437440,20.50,293.0,29.0,1,1,0,16.5
Status,1682122706000,43,14,3,11,1602000000,30.30,359.0,28.0,1,1,0,26.3
Status,1682122706000,43,15,3,1,1602562560,21.40,312.0,60.0,1,1,0,17.4
Status,1682122706000,43,16,3,2,1599750020,0.00,332.0,7.0,0,1,0,0.0
Status,1682122706000,43,17,3,13,1600875010,0.00,254.0,3.0,0,1,0,0.0
Status,1682122706000,43,18,3,21,1604249980,0.00,104.0,18.0,0,1,0,0.0
Status,1682122706000,43,19,3,7,1604812540,0.00,159.0,9.0,0,1,0,0.0
Status,1682122706000,43,20,3,8,1605374980,0.00,172.0,56.0,0,1,0,0.0
Status,1682122706000,43,21,5,28,1561097980,25.20,86.0,24.0,0,1,0,20.900002
Status,1682122706000,43,22,5,19,1561097980,31.00,315.0,20.0,0,1,0,26.7
Status,1682122706000,43,23,5,16,1561097980,27.40,71.0,42.0,1,1,0,23.099998
Status,1682122706000,43,24,5,9,1561097980,28.10,39.0,49.0,1,1,0,23.8
Status,1682122706000,43,25,5,6,1561097980,29.00,65.0,45.0,1,1,0,24.7
Status,1682122706000,43,26,5,1,1561097980,0.00,97.0,16.0,0,1,0,0.0
Status,1682122706000,43,27,5,2,1561097980,0.00,165.0,73.0,0,1,0,0.0
Status,1682122706000,43,28,5,3,1561097980,0.00,113.0,51.0,0,1,0,0.0
Status,1682122706000,43,29,5,5,1561097980,0.00,239.0,60.0,0,1,0,0.0
Status,1682122706000,43,30,5,7,1561097980,0.00,45.0,64.0,0,1,0,0.0
Status,1682122706000,43,31,5,10,1561097980,0.00,51.0,79.0,0,1,0,0.0
Status,1682122706000,43,32,5,13,1561097980,0.00,175.0,10.0,0,1,0,0.0
Status,1682122706000,43,33,5,20,1561097980,0.00,272.0,62.0,0,1,0,0.0
Status,1682122706000,43,34,5,27,1561097980,0.00,141.0,32.0,0,1,0,0.0
Status,1682122706000,43,35,5,30,1561097980,0.00,190.0,11.0,0,1,0,0.0
Status,1682122706000,43,36,6,19,1575420030,20.20,327.0,29.0,1,1,0,15.900001
Status,1682122706000,43,37,6,21,1575420030,20.70,296.0,58.0,1,1,0,16.400002
Status,1682122706000,43,38,6,27,1575420030,23.80,18.0,37.0,1,1,0,19.5
Status,1682122706000,43,39,6,1,1575420030,0.00,245.0,24.0,0,1,0,0.0
Status,1682122706000,43,40,6,7,1575420030,0.00,131.0,45.0,0,1,0,0.0
Status,1682122706000,43,41,6,13,1575420030,0.00,138.0,9.0,0,1,0,0.0
Status,1682122706000,43,42,6,26,1575420030,0.00,188.0,6.0,0,1,0,0.0
Raw,1682122706414,66152610000000,18,,-1366091771804661796,0.05602455139160156,163.18002599291503,7.319455579063998,19.736341135734314,10,7,0.0,16399,519524335871448,40,25.1,-213.4238739013672,0.7910000085830688,16,0.0,0.0,1575420030,,,,0,,1,4.62,21.6,0.0,0.0,,,C,65804440312030
Raw,1682122706414,66152610000000,18,,-1366091771804661796,0.05602455139160156,163.18002599291503,7.319455579063998,19.736341135734314,10,9,0.0,16399,519524343410600,35,25.7,-449.44512939453125,0.8089999556541443,16,0.0,0.0,1575420030,,,,0,,1,4.62,22.2,0.0,0.0,,,C,65804440312030
Raw,1682122706414,66152610000000,18,,-1366091771804661796,0.05602455139160156,163.18002599291503,7.319455579063998,19.736341135734314,10,27,0.0,16399,519524341295818,14,33.6,286.88299560546875,0.05149565637111664,16,0.0,0.0,1575420030,,,,0,,1,4.62,30.1,0.0,0.0,,,C,65804440312030
Raw,1682122706414,66152610000000,18,,-1366091771804661796,0.05602455139160156,163.18002599291503,7.319455579063998,19.736341135734314,10,11,0.0,49359,11906341661904,21,30.3,348.5014953613281,0.08535949885845184,16,0.0,0.0,1602000000,,,,0,,3,1.08,26.3,3852.158447265625,22.76909828186035,,,C,65804440312030
Raw,1682122706414,66152610000000,18,,-1366091771804661796,0.05602455139160156,163.18002599291503,7.319455579063998,19.736341135734314,10,1,0.0,49359,11906348662604,70,21.4,-279.7455139160156,1.778499960899353,16,0.0,0.0,1602562560,,,,0,,3,1.08,17.4,3852.158447265625,22.76909828186035,,,C,65804440312030
Raw,1682122706414,66152610000000,18,,-1366091771804661796,0.05602455139160156,163.18002599291503,7.319455579063998,19.736341135734314,10,28,0.0,16399,519510332410781,46,25.2,-49.142906188964844,0.7954999804496765,16,0.0,0.0,1561097980,,,,0,,5,1.15,20.9,-1544.9425048828125,27.41960906982422,,,I,65804440312030
Raw,1682122706414,66152610000000,18,,-1366091771804661796,0.05602455139160156,163.18002599291503,7.319455579063998,19.736341135734314,10,19,0.0,16399,519510330308956,21,31.0,-448.2459411621094,0.07299555093050003,16,0.0,0.0,1561097980,,,,0,,5,1.15,26.7,-1544.9425048828125,27.41960906982422,,,I,65804440312030
Raw,1682122706414,66152610000000,18,,-1366091771804661796,0.05602455139160156,163.18002599291503,7.319455579063998,19.736341135734314,10,16,0.0,16399,519510289547704,31,27.4,-147.0926513671875,0.6799999475479126,16,0.0,0.0,1561097980,,,,0,,5,1.15,23.099999999999998,-1544.9425048828125,27.41960906982422,,,I,65804440312030
Raw,1682122706414,66152610000000,18,,-1366091771804661796,0.05602455139160156,163.18002599291503,7.319455579063998,19.736341135734314,10,9,0.0,16399,519510291382585,31,28.1,-170.6846923828125,0.6270000338554382,16,0.0,0.0,1561097980,,,,0,,5,1.15,23.8,-1544.9425048828125,27.41960906982422,,,I,65804440312030
Raw,1682122706414,66152610000000,18,,-1366091771804661796,0.05602455139160156,163.18002599291503,7.319455579063998,19.736341135734314,10,6,0.0,16399,519510290091257,27,29.0,-136.64569091796875,0.5885000228881836,16,0.0,0.0,1561097980,,,,0,,5,1.15,24.7,-1544.9425048828125,27.41960906982422,,,I,65804440312030
Raw,1682122706414,66152610000000,18,,-1366091771804661796,0.05602455139160156,163.18002599291503,7.319455579063998,19.736341135734314,10,21,0.0,23567,519524334099633,80,20.7,79.2763442993164,1.8834999799728394,16,0.0,0.0,1575420030,,,,0,,6,4.88,16.4,-1472.6558837890625,39.63035583496094,,,C,65804440312030
Raw,1682122706414,66152610000000,18,,-1366091771804661796,0.05602455139160156,163.18002599291503,7.319455579063998,19.736341135734314,10,27,0.0,23567,519524330215742,53,23.8,391.08587646484375,1.2578426599502563,16,0.0,0.0,1575420030,,,,0,,6,4.88,19.5,-1472.6558837890625,39.63035583496094,,,C,65804440312030
Fix,GPS,12.9855390100,80.2390955200,-60.629791259765625,0.0,12.860583,,1682122707000,0.58591807,,65805021064739,14.633672
Status,1682122707000,43,0,1,4,1575420030,20.30,41.0,75.0,1,1,0,16.8
Status,1682122707000,43,1,1,7,1575420030,25.30,320.0,25.0,1,1,0,21.8
Status,1682122707000,43,2,1,9,1575420030,30.00,334.0,49.0,1,1,0,26.5
Status,1682122707000,43,3,1,27,1575420030,32.40,61.0,35.0,1,1,0,28.900002
Status,1682122707000,43,4,1,1,1575420030,0.00,173.0,7.0,0,1,0,0.0
Status,1682122707000,43,5,1,3,1575420030,0.00,197.0,31.0,0,1,0,0.0
Status,1682122707000,43,6,1,8,1575420030,0.00,104.0,58.0,0,1,0,0.0
Status,1682122707000,43,7,1,14,1575420030,0.00,237.0,14.0,0,1,0,0.0
Status,1682122707000,43,8,1,16,1575420030,0.00,32.0,17.0,0,1,0,0.0
Status,1682122707000,43,9,1,21,1575420030,0.00,150.0,11.0,0,1,0,0.0
Status,1682122707000,43,10,1,30,1575420030,0.00,294.0,4.0,0,1,0,0.0
Status,1682122707000,43,11,4,194,1575420030,0.00,49.0,24.0,0,1,0,0.0
Status,1682122707000,43,12,4,195,1575420030,0.00,92.0,14.0,0,1,0,0.0
Status,1682122707000,43,13,3,12,1601437440,19.60,293.0,29.0,1,1,0,15.6
Status,1682122707000,43,14,3,11,1602000000,31.50,359.0,28.0,1,1,0,27.5
Status,1682122707000,43,15,3,1,1602562560,29.70,312.0,60.0,1,1,0,25.7
Status,1682122707000,43,16,3,2,1599750020,0.00,332.0,7.0,0,1,0,0.0
Status,1682122707000,43,17,3,13,1600875010,0.00,254.0,3.0,0,1,0,0.0
Status,1682122707000,43,18,3,21,1604249980,0.00,104.0,18.0,0,1,0,0.0
Status,1682122707000,43,19,3,7,1604812540,0.00,159.0,9.0,0,1,0,0.0
Status,1682122707000,43,20,3,8,1605374980,0.00,172.0,56.0,0,1,0,0.0
Status,1682122707000,43,21,5,28,1561097980,27.00,86.0,24.0,0,1,0,22.7
Status,1682122707000,43,22,5,20,1561097980,18.60,272.0,62.0,0,1,0,14.3
Status,1682122707000,43,23,5,19,1561097980,30.90,315.0,20.0,0,1,0,26.599998
Status,1682122707000,43,24,5,16,1561097980,30.30,71.0,42.0,1,1,0,26.0
Status,1682122707000,43,25,5,10,1561097980,18.30,51.0,79.0,0,1,0,13.999999
Status,1682122707000,43,26,5,9,1561097980,26.00,39.0,49.0,1,1,0,21.7
Status,1682122707000,43,27,5,7,1561097980,18.00,45.0,64.0,0,1,0,13.7
Status,1682122707000,43,28,5,6,1561097980,23.90,65.0,45.0,1,1,0,19.599998
Status,1682122707000,43,29,5,1,1561097980,0.00,97.0,16.0,0,1,0,0.0
Status,1682122707000,43,30,5,2,1561097980,0.00,165.0,73.0,0,1,0,0.0
Status,1682122707000,43,31,5,3,1561097980,0.00,113.0,51.0,0,1,0,0.0
Status,1682122707000,43,32,5,5,1561097980,0.00,239.0,60.0,0,1,0,0.0
Status,1682122707000,43,33,5,13,1561097980,0.00,175.0,10.0,0,1,0,0.0
Status,1682122707000,43,34,5,27,1561097980,0.00,141.0,32.0,0,1,0,0.0
Status,1682122707000,43,35,5,30,1561097980,0.00,190.0,11.0,0,1,0,0.0
Status,1682122707000,43,36,6,19,1575420030,20.20,327.0,29.0,1,1,0,15.900001
Status,1682122707000,43,37,6,21,1575420030,20.70,296.0,58.0,1,1,0,16.400002
Status,1682122707000,43,38,6,27,1575420030,23.30,18.0,37.0,1,1,0,19.0
Status,1682122707000,43,39,6,1,1575420030,0.00,245.0,24.0,0,1,0,0.0
Status,1682122707000,43,40,6,7,1575420030,0.00,131.0,45.0,0,1,0,0.0
Status,1682122707000,43,41,6,13,1575420030,0.00,138.0,9.0,0,1,0,0.0
Status,1682122707000,43,42,6,26,1575420030,0.00,188.0,6.0,0,1,0,0.0
Raw,1682122707414,66153610000000,18,,-1366091771804661780,0.6857204437255859,162.29624452535063,6.380446069683386,24.54752642343577,10,4,0.0,16399,519525347036319,80,20.3,-111.81656646728516,1.8669999837875366,16,0.0,0.0,1575420030,,,,0,,1,4.62,16.8,0.0,0.0,,,C,65805437445416
Raw,1682122707414,66153610000000,18,,-1366091771804661780,0.6857204437255859,162.29624452535063,6.380446069683386,24.54752642343577,10,7,0.0,16399,519525335872215,40,25.3,-216.7159423828125,0.7910000085830688,16,0.0,0.0,1575420030,,,,0,,1,4.62,21.8,0.0,0.0,,,C,65805437445416
Raw,1682122707414,66153610000000,18,,-1366091771804661780,0.6857204437255859,162.29624452535063,6.380446069683386,24.54752642343577,10,9,0.0,16399,519525343412091,21,30.0,-453.35791015625,0.6539720296859741,16,0.0,0.0,1575420030,,,,0,,1,4.62,26.5,0.0,0.0,,,C,65805437445416
Raw,1682122707414,66153610000000,18,,-1366091771804661780,0.6857204437255859,162.29624452535063,6.380446069683386,24.54752642343577,10,27,0.0,16399,519525341294855,17,32.4,283.9119873046875,0.05779437720775604,16,0.0,0.0,1575420030,,,,0,,1,4.62,28.9,0.0,0.0,,,C,65805437445416
Raw,1682122707414,66153610000000,18,,-1366091771804661780,0.6857204437255859,162.29624452535063,6.380446069683386,24.54752642343577,10,12,0.0,49359,11907341962979,92,19.6,29.55921173095703,1.9480000734329224,16,0.0,0.0,1601437440,,,,0,,3,1.07,15.600000000000001,3852.158447265625,22.76909828186035,,,C,65805437445416
Raw,1682122707414,66153610000000,18,,-1366091771804661780,0.6857204437255859,162.29624452535063,6.380446069683386,24.54752642343577,10,11,0.0,49359,11907341660736,19,31.5,345.3731689453125,0.06728212535381317,16,0.0,0.0,1602000000,,,,0,,3,1.07,27.5,3852.158447265625,22.76909828186035,,,C,65805437445416
Raw,1682122707414,66153610000000,18,,-1366091771804661780,0.6857204437255859,162.29624452535063,6.380446069683386,24.54752642343577,10,1,0.0,49359,11907348663625,24,29.7,-283.0730285644531,0.6674280762672424,16,0.0,0.0,1602562560,,,,0,,3,1.07,25.7,3852.158447265625,22.76909828186035,,,C,65805437445416
Raw,1682122707414,66153610000000,18,,-1366091771804661780,0.6857204437255859,162.29624452535063,6.380446069683386,24.54752642343577,10,28,0.0,16399,519511332410898,35,27.0,-51.94668197631836,0.6754999756813049,16,0.0,0.0,1561097980,,,,0,,5,1.06,22.7,-1544.9425048828125,27.41960906982422,,,I,65805437445416
Raw,1682122707414,66153610000000,18,,-1366091771804661780,0.6857204437255859,162.29624452535063,6.380446069683386,24.54752642343577,10,20,0.0,16399,519511341456567,1187,18.6,-5.789990425109863,5.228000164031982,16,0.0,0.0,1561097980,,,,0,,5,1.06,14.3,-1544.9425048828125,27.41960906982422,,,I,65805437445416
Raw,1682122707414,66153610000000,18,,-1366091771804661780,0.6857204437255859,162.29624452535063,6.380446069683386,24.54752642343577,10,19,0.0,16399,519511330310434,21,30.9,-451.28765869140625,0.07299555093050003,16,0.0,0.0,1561097980,,,,0,,5,1.06,26.599999999999998,-1544.9425048828125,27.41960906982422,,,I,65805437445416
Raw,1682122707414,66153610000000,18,,-1366091771804661780,0.6857204437255859,162.29624452535063,6.380446069683386,24.54752642343577,10,16,0.0,16399,519511289548190,21,30.3,-150.18511962890625,0.6506140232086182,16,0.0,0.0,1561097980,,,,0,,5,1.06,26.0,-1544.9425048828125,27.41960906982422,,,I,65805437445416
Raw,1682122707414,66153610000000,18,,-1366091771804661780,0.6857204437255859,162.29624452535063,6.380446069683386,24.54752642343577,10,10,0.0,16399,519511293758033,106,18.3,25.474040985107422,4.991000175476074,16,0.0,0.0,1561097980,,,,0,,5,1.06,14.0,-1544.9425048828125,27.41960906982422,,,I,65805437445416
Raw,1682122707414,66153610000000,18,,-1366091771804661780,0.6857204437255859,162.29624452535063,6.380446069683386,24.54752642343577,10,9,0.0,16399,519511291383110,40,26.0,-173.4020538330078,0.7369999885559082,16,0.0,0.0,1561097980,,,,0,,5,1.06,21.7,-1544.9425048828125,27.41960906982422,,,I,65805437445416
Raw,1682122707414,66153610000000,18,,-1366091771804661780,0.6857204437255859,162.29624452535063,6.380446069683386,24.54752642343577,10,7,0.0,16399,519511293279060,122,18.0,56.4884147644043,4.991000175476074,16,0.0,0.0,1561097980,,,,0,,5,1.06,13.7,-1544.9425048828125,27.41960906982422,,,I,65805437445416
Raw,1682122707414,66153610000000,18,,-1366091771804661780,0.6857204437255859,162.29624452535063,6.380446069683386,24.54752642343577,10,6,0.0,16399,519511290091691,53,23.9,-138.49888610839844,0.9284999966621399,16,0.0,0.0,1561097980,,,,0,,5,1.06,19.599999999999998,-1544.9425048828125,27.41960906982422,,,I,65805437445416
Raw,1682122707414,66153610000000,18,,-1366091771804661780,0.6857204437255859,162.29624452535063,6.380446069683386,24.54752642343577,10,27,0.0,23567,519525330214448,53,23.3,387.8195495605469,1.2578426599502563,16,0.0,0.0,1575420030,,,,0,,6,4.88,19.0,-1472.64453125,39.5714225769043,,,C,65805437445416
Fix,GPS,12.9855210300,80.2390948200,-69.46255493164062,0.0,10.656759,,1682122708000,0.6313478,,65806020873228,12.003509
Status,1682122708000,43,0,1,4,1575420030,21.80,41.0,75.0,1,1,0,18.3
Status,1682122708000,43,1,1,7,1575420030,24.00,320.0,25.0,1,1,0,20.5
Status,1682122708000,43,2,1,9,1575420030,24.70,334.0,49.0,1,1,0,21.2
Status,1682122708000,43,3,1,27,1575420030,33.00,61.0,35.0,1,1,0,29.5
Status,1682122708000,43,4,1,1,1575420030,0.00,173.0,7.0,0,1,0,0.0
Status,1682122708000,43,5,1,3,1575420030,0.00,197.0,31.0,0,1,0,0.0
Status,1682122708000,43,6,1,8,1575420030,0.00,104.0,58.0,0,1,0,0.0
Status,1682122708000,43,7,1,14,1575420030,0.00,237.0,14.0,0,1,0,0.0
Status,1682122708000,43,8,1,16,1575420030,0.00,32.0,17.0,0,1,0,0.0
Status,1682122708000,43,9,1,21,1575420030,0.00,150.0,11.0,0,1,0,0.0
Status,1682122708000,43,10,1,30,1575420030,0.00,294.0,4.0,0,1,0,0.0
Status,1682122708000,43,11,4,194,1575420030,0.00,49.0,24.0,0,1,0,0.0
Status,1682122708000,43,12,4,195,1575420030,0.00,92.0,14.0,0,1,0,0.0
Status,1682122708000,43,13,3,12,1601437440,24.70,293.0,29.0,1,1,0,20.7
Status,1682122708000,43,14,3,11,1602000000,31.20,359.0,28.0,1,1,0,27.2
Status,1682122708000,43,15,3,1,1602562560,27.20,312.0,60.0,1,1,0,23.2
Status,1682122708000,43,16,3,2,1599750020,0.00,332.0,7.0,0,1,0,0.0
Status,1682122708000,43,17,3,13,1600875010,0.00,254.0,3.0,0,1,0,0.0
Status,1682122708000,43,18,3,21,1604249980,0.00,104.0,18.0,0,1,0,0.0
Status,1682122708000,43,19,3,7,1604812540,0.00,159.0,9.0,0,1,0,0.0
Status,1682122708000,43,20,3,8,1605374980,0.00,172.0,56.0,0,1,0,0.0
Status,1682122708000,43,21,5,28,1561097980,27.70,86.0,24.0,0,1,0,23.400002
Status,1682122708000,43,22,5,20,1561097980,18.30,272.0,62.0,0,1,0,13.999999
Status,1682122708000,43,23,5,19,1561097980,32.50,315.0,20.0,0,1,0,28.2
Status,1682122708000,43,24,5,16,1561097980,31.40,71.0,42.0,1,1,0,27.099998
Status,1682122708000,43,25,5,10,1561097980,18.30,51.0,79.0,1,1,0,13.999999
Status,1682122708000,43,26,5,9,1561097980,26.10,39.0,49.0,1,1,0,21.8
Status,1682122708000,43,27,5,7,1561097980,18.00,45.0,64.0,1,1,0,13.7
Status,1682122708000,43,28,5,6,1561097980,28.10,65.0,45.0,1,1,0,23.8
Status,1682122708000,43,29,5,1,1561097980,0.00,97.0,16.0,0,1,0,0.0
Status,1682122708000,43,30,5,2,1561097980,0.00,165.0,73.0,0,1,0,0.0
Status,1682122708000,43,31,5,3,1561097980,0.00,113.0,51.0,0,1,0,0.0
Status,1682122708000,43,32,5,5,1561097980,0.00,239.0,60.0,0,1,0,0.0
Status,1682122708000,43,33,5,13,1561097980,0.00,175.0,10.0,0,1,0,0.0
Status,1682122708000,43,34,5,27,1561097980,0.00,141.0,32.0,0,1,0,0.0
Status,1682122708000,43,35,5,30,1561097980,0.00,190.0,11.0,0,1,0,0.0
Status,1682122708000,43,36,6,19,1575420030,20.50,327.0,29.0,1,1,0,16.2
Status,1682122708000,43,37,6,21,1575420030,22.30,296.0,58.0,1,1,0,18.0
Status,1682122708000,43,38,6,27,1575420030,23.30,18.0,37.0,1,1,0,19.0
Status,1682122708000,43,39,6,1,1575420030,0.00,245.0,24.0,0,1,0,0.0
Status,1682122708000,43,40,6,7,1575420030,0.00,131.0,45.0,0,1,0,0.0
Status,1682122708000,43,41,6,13,1575420030,0.00,138.0,9.0,0,1,0,0.0
Status,1682122708000,43,42,6,26,1575420030,0.00,188.0,6.0,0,1,0,0.0
Fix,GPS,12.9854761000,80.2390810000,-73.5899658203125,0.0,9.711847,,1682122709000,0.5247857,,65807020877811,11.14393
Raw,1682122708414,66154610000000,18,,-1366091771804661803,0.8571414947509766,139.78002243675292,-2.384876029371034,25.0803409356602,10,4,0.0,16399,519526347036595,61,21.8,-113.04395294189453,1.0929999351501465,16,0.0,0.0,1575420030,,,,0,,1,4.0,18.3,0.0,0.0,,,C,65806437993280
Raw,1682122708414,66154610000000,18,,-1366091771804661803,0.8571414947509766,139.78002243675292,-2.384876029371034,25.0803409356602,10,7,0.0,16399,519526335872882,46,24.0,-215.82156372070312,0.8510000109672546,16,0.0,0.0,1575420030,,,,0,,1,4.0,20.5,0.0,0.0,,,C,65806437993280
Raw,1682122708414,66154610000000,18,,-1366091771804661803,0.8571414947509766,139.78002243675292,-2.384876029371034,25.0803409356602,10,9,0.0,16399,519526343413637,40,24.7,-452.7847900390625,0.8689999580383301,16,0.0,0.0,1575420030,,,,0,,1,4.0,21.2,0.0,0.0,,,C,65806437993280
