# 
# Header Description:
# 
# Version: v3.0.6.1 Platform: 12 Manufacturer: Xiaomi Model: 2201116PI
# 
# Raw,utcTimeMillis,TimeNanos,LeapSecond,TimeUncertaintyNanos,FullBiasNanos,BiasNanos,BiasUncertaintyNanos,DriftNanosPerSecond,DriftUncertaintyNanosPerSecond,HardwareClockDiscontinuityCount,Svid,TimeOffsetNanos,State,ReceivedSvTimeNanos,ReceivedSvTimeUncertaintyNanos,Cn0DbHz,PseudorangeRateMetersPerSecond,PseudorangeRateUncertaintyMetersPerSecond,AccumulatedDeltaRangeState,AccumulatedDeltaRangeMeters,AccumulatedDeltaRangeUncertaintyMeters,CarrierFrequencyHz,CarrierCycles,CarrierPhase,CarrierPhaseUncertainty,MultipathIndicator,SnrInDb,ConstellationType,AgcDb,BasebandCn0DbHz,FullInterSignalBiasNanos,FullInterSignalBiasUncertaintyNanos,SatelliteInterSignalBiasNanos,SatelliteInterSignalBiasUncertaintyNanos,CodeType,ChipsetElapsedRealtimeNanos
# 
# UncalAccel,utcTimeMillis,elapsedRealtimeNanos,UncalAccelXMps2,UncalAccelYMps2,UncalAccelZMps2,BiasXMps2,BiasYMps2,BiasZMps2
# 
# Accel,utcTimeMillis,elapsedRealtimeNanos,AccelXMps2,AccelYMps2,AccelZMps2
# 
# UncalGyro,utcTimeMillis,elapsedRealtimeNanos,UncalGyroXRadPerSec,UncalGyroYRadPerSec,UncalGyroZRadPerSec,DriftXRadPerSec,DriftYRadPerSec,DriftZRadPerSec
# 
# Gyro,utcTimeMillis,elapsedRealtimeNanos,GyroXRadPerSec,GyroYRadPerSec,GyroZRadPerSec
# 
# UncalMag,utcTimeMillis,elapsedRealtimeNanos,UncalMagXMicroT,UncalMagYMicroT,UncalMagZMicroT,BiasXMicroT,BiasYMicroT,BiasZMicroT
# 
# Mag,utcTimeMillis,elapsedRealtimeNanos,MagXMicroT,MagYMicroT,MagZMicroT
# 
# OrientationDeg,utcTimeMillis,elapsedRealtimeNanos,yawDeg,rollDeg,pitchDeg
# 
# Fix,Provider,LatitudeDegrees,LongitudeDegrees,AltitudeMeters,SpeedMps,AccuracyMeters,BearingDegrees,UnixTimeMillis,SpeedAccuracyMps,BearingAccuracyDegrees,elapsedRealtimeNanos,VerticalAccuracyMeters
# 
# Nav,Svid,Type,Status,MessageId,Sub-messageId,Data(Bytes)
# 
# Status,UnixTimeMillis,SignalCount,SignalIndex,ConstellationType,Svid,CarrierFrequencyHz,Cn0DbHz,AzimuthDegrees,ElevationDegrees,UsedInFix,HasAlmanacData,HasEphemerisData,BasebandCn0DbHz
# 
Status,,55,0,1,2,1575420030,25.80,336.0,29.0,1,1,0,22.3
Status,,55,1,1,10,1575420030,37.50,263.0,21.0,1,1,0,34.0
Status,,55,2,1,13,1575420030,17.50,45.0,23.0,1,1,0,14.0
Status,,55,3,1,15,1575420030,37.90,45.0,54.0,1,1,0,34.4
Status,,55,4,1,18,1575420030,24.20,340.0,30.0,1,1,0,20.7
Status,,55,5,1,23,1575420030,29.10,296.0,41.0,1,1,0,25.6
Status,,55,6,1,24,1575420030,19.20,136.0,23.0,1,1,0,15.700001
Status,,55,7,1,29,1575420030,33.80,150.0,81.0,0,1,0,30.3
Status,,55,8,1,5,1575420030,0.00,43.0,7.0,0,1,0,0.0
Status,,55,9,1,11,1575420030,0.00,0.0,0.0,0,1,0,0.0
Status,,55,10,1,12,1575420030,0.00,167.0,7.0,0,1,0,0.0
Status,,55,11,1,25,1575420030,0.00,196.0,20.0,0,1,0,0.0
Status,,55,12,1,26,1575420030,0.00,283.0,5.0,0,1,0,0.0
Status,,55,13,1,32,1575420030,0.00,210.0,5.0,0,1,0,0.0
Status,,55,14,4,195,1575420030,29.70,104.0,30.0,0,1,0,26.2
Status,,55,15,2,128,1575420030,41.20,0.0,0.0,0,0,0,37.7
Status,,55,16,3,6,1599750020,23.20,224.0,32.0,0,1,0,19.2
Status,,55,17,3,18,1600312450,21.50,117.0,22.0,1,1,0,17.5
Status,,55,18,3,5,1602562560,36.60,340.0,70.0,1,1,0,32.6
Status,,55,19,3,19,1603687550,26.20,70.0,48.0,1,1,0,22.2
Status,,55,20,3,4,1605374980,19.40,20.0,22.0,1,1,0,15.4
Status,,55,21,3,9,1600875010,0.00,0.0,0.0,0,1,0,0.0
Status,,55,22,3,20,1603124990,0.00,350.0,26.0,0,1,0,0.0
Status,,55,23,5,22,1561097980,20.00,30.0,22.0,0,1,0,15.7
Status,,55,24,5,21,1561097980,40.20,341.0,66.0,0,1,0,35.9
Status,,55,25,5,16,1561097980,33.30,116.0,42.0,1,1,0,29.0
Status,,55,26,5,14,1561097980,25.70,232.0,18.0,1,1,0,21.400002
Status,,55,27,5,13,1561097980,21.40,14.0,35.0,1,1,0,17.099998
Status,,55,28,5,12,1561097980,31.00,6.0,61.0,1,1,0,26.7
Status,,55,29,5,10,1561097980,23.00,175.0,39.0,1,1,0,18.7
Status,,55,30,5,9,1561097980,30.60,145.0,38.0,1,1,0,26.3
Status,,55,31,5,7,1561097980,22.70,164.0,28.0,1,1,0,18.400002
Status,,55,32,5,6,1561097980,30.80,125.0,42.0,1,1,0,26.5
Status,,55,33,5,5,1561097980,33.20,242.0,61.0,1,1,0,28.900002
Status,,55,34,5,3,1561097980,30.90,108.0,52.0,0,1,0,26.599998
Status,,55,35,5,2,1561097980,37.20,161.0,75.0,0,1,0,32.9
Status,,55,36,5,1,1561097980,0.00,94.0,17.0,0,1,0,0.0
Status,,55,37,5,8,1561097980,0.00,27.0,28.0,0,1,0,0.0
Status,,55,38,5,11,1561097980,0.00,328.0,16.0,0,1,0,0.0
Status,,55,39,5,24,1561097980,0.00,214.0,5.0,0,1,0,0.0
Status,,55,40,5,26,1561097980,0.00,170.0,9.0,0,1,0,0.0
Status,,55,41,5,39,1561097980,0.00,104.0,44.0,0,1,0,0.0
Status,,55,42,5,40,1561097980,0.00,162.0,20.0,0,1,0,0.0
Status,,55,43,5,61,1561097980,0.00,111.0,51.0,0,1,0,0.0
Status,,55,44,6,4,1575420030,34.10,52.0,57.0,1,1,0,29.8
Status,,55,45,6,10,1575420030,30.50,42.0,44.0,1,1,0,26.2
Status,,55,46,6,11,1575420030,23.00,2.0,40.0,1,1,0,18.7
Status,,55,47,6,12,1575420030,27.80,73.0,34.0,1,1,0,23.5
Status,,55,48,6,24,1575420030,20.40,201.0,21.0,1,1,0,16.099998
Status,,55,49,6,25,1575420030,31.60,257.0,20.0,1,1,0,27.3
Status,,55,50,6,2,1575420030,0.00,0.0,0.0,0,1,0,0.0
Status,,55,51,6,5,1575420030,0.00,210.0,11.0,0,1,0,0.0
Status,,55,52,6,19,1575420030,0.00,36.0,2.0,0,1,0,0.0
Status,,55,53,6,31,1575420030,0.00,158.0,2.0,0,1,0,0.0
Status,,55,54,6,36,1575420030,0.00,319.0,11.0,0,1,0,0.0
Raw,1682169917426,112979780000000,18,,-1366092155646026962,-0.32497692108154297,70.44504309305921,11.43915312839948,15.216542810504393,44,2,0.0,16399,566735347445139,35,25.8,-345.1451416015625,0.8029999732971191,16,0.0,0.0,1575420030,,,,0,,1,4.0,22.3,0.0,0.0,,,C,113015329388656
Raw,1682169917426,112979780000000,18,,-1366092155646026962,-0.32497692108154297,70.44504309305921,11.43915312839948,15.216542810504393,44,10,0.0,16399,566735346898974,10,37.5,-194.84690856933594,0.040399108082056046,16,0.0,0.0,1575420030,,,,0,,1,4.0,34.0,0.0,0.0,,,C,113015329388656
Raw,1682169917426,112979780000000,18,,-1366092155646026962,-0.32497692108154297,70.44504309305921,11.43915312839948,15.216542810504393,44,15,0.0,16399,566735356757969,10,37.9,340.9760437011719,0.0253991037607193,16,0.0,0.0,1575420030,,,,0,,1,4.0,34.4,0.0,0.0,,,C,113015329388656
Raw,1682169917426,112979780000000,18,,-1366092155646026962,-0.32497692108154297,70.44504309305921,11.43915312839948,15.216542810504393,44,18,0.0,16399,566735349994667,46,24.2,-333.30889892578125,0.8600000143051147,16,0.0,0.0,1575420030,,,,0,,1,4.0,20.7,0.0,0.0,,,C,113015329388656
Raw,1682169917426,112979780000000,18,,-1366092155646026962,-0.32497692108154297,70.44504309305921,11.43915312839948,15.216542810504393,44,23,0.0,16399,566735352774656,24,29.1,2.8677000999450684,1.2432653903961182,16,0.0,0.0,1575420030,,,,0,,1,4.0,25.6,0.0,0.0,,,C,113015329388656
Raw,1682169917426,112979780000000,18,,-1366092155646026962,-0.32497692108154297,70.44504309305921,11.43915312839948,15.216542810504393,44,29,0.0,16399,566735358112196,14,33.8,109.52104187011719,0.025995653122663498,16,0.0,0.0,1575420030,,,,0,,1,4.0,30.299999999999997,0.0,0.0,,,C,113015329388656
Raw,1682169917426,112979780000000,18,,-1366092155646026962,-0.32497692108154297,70.44504309305921,11.43915312839948,15.216542810504393,44,195,0.0,16399,566735298981439,21,29.7,-222.64976501464844,1.2023530006408691,16,0.0,0.0,1575420030,,,,0,,4,4.0,26.2,0.0,0.0,,,C,113015329388656
Raw,1682169917426,112979780000000,18,,-1366092155646026962,-0.32497692108154297,70.44504309305921,11.43915312839948,15.216542810504393,44,18,0.0,49359,59117351477676,70,21.5,352.7306213378906,1.7829999923706055,16,0.0,0.0,1600312450,,,,0,,3,1.18,17.5,3830.802490234375,21.620580673217773,,,C,113015329388656
Raw,1682169917426,112979780000000,18,,-1366092155646026962,-0.32497692108154297,70.44504309305921,11.43915312839948,15.216542810504393,44,5,0.0,49359,59117361284271,12,36.6,274.77569580078125,0.04937058687210083,16,0.0,0.0,1602562560,,,,0,,3,1.18,32.6,3830.802490234375,21.620580673217773,,,C,113015329388656
Raw,1682169917426,112979780000000,18,,-1366092155646026962,-0.32497692108154297,70.44504309305921,11.43915312839948,15.216542810504393,44,19,0.0,49359,59117357771465,35,26.2,-98.91901397705078,0.7279999852180481,16,0.0,0.0,1603687550,,,,0,,3,1.18,22.2,3830.802490234375,21.620580673217773,,,C,113015329388656
Raw,1682169917426,112979780000000,18,,-1366092155646026962,-0.32497692108154297,70.44504309305921,11.43915312839948,15.216542810504393,44,4,0.0,49359,59117351555134,92,19.4,736.0473022460938,3.4630000591278076,16,0.0,0.0,1605374980,,,,0,,3,1.18,15.399999999999999,3830.802490234375,21.620580673217773,,,C,113015329388656
Raw,1682169917426,112979780000000,18,,-1366092155646026962,-0.32497692108154297,70.44504309305921,11.43915312839948,15.216542810504393,44,22,0.0,16399,566721342601008,936,20.0,542.6748046875,6.4795002937316895,16,0.0,0.0,1561097980,,,,0,,5,1.53,15.7,-1552.0362548828125,17.94957733154297,,,I,113015329388656
Raw,1682169917426,112979780000000,18,,-1366092155646026962,-0.32497692108154297,70.44504309305921,11.43915312839948,15.216542810504393,44,21,0.0,16399,566721351868343,9,40.2,231.52027893066406,0.03235790133476257,16,0.0,0.0,1561097980,,,,0,,5,1.53,35.900000000000006,-1552.0362548828125,17.94957733154297,,,I,113015329388656
Raw,1682169917426,112979780000000,18,,-1366092155646026962,-0.32497692108154297,70.44504309305921,11.43915312839948,15.216542810504393,44,16,0.0,16399,566721300284809,16,33.3,-241.192626953125,0.05803739279508591,16,0.0,0.0,1561097980,,,,0,,5,1.53,28.999999999999996,-1552.0362548828125,17.94957733154297,,,I,113015329388656
Raw,1682169917426,112979780000000,18,,-1366092155646026962,-0.32497692108154297,70.44504309305921,11.43915312839948,15.216542810504393,44,14,0.0,16399,566721342204119,40,25.7,-430.72540283203125,0.8104999661445618,16,0.0,0.0,1561097980,,,,0,,5,1.53,21.4,-1552.0362548828125,17.94957733154297,,,I,113015329388656
Raw,1682169917426,112979780000000,18,,-1366092155646026962,-0.32497692108154297,70.44504309305921,11.43915312839948,15.216542810504393,44,12,0.0,16399,566721352724651,21,31.0,-286.5746765136719,0.06999555230140686,16,0.0,0.0,1561097980,,,,0,,5,1.53,26.7,-1552.0362548828125,17.94957733154297,,,I,113015329388656
Raw,1682169917426,112979780000000,18,,-1366092155646026962,-0.32497692108154297,70.44504309305921,11.43915312839948,15.216542810504393,44,10,0.0,16399,566721301114059,61,23.0,242.42105102539062,0.9419999718666077,16,0.0,0.0,1561097980,,,,0,,5,1.53,18.7,-1552.0362548828125,17.94957733154297,,,I,113015329388656
Raw,1682169917426,112979780000000,18,,-1366092155646026962,-0.32497692108154297,70.44504309305921,11.43915312839948,15.216542810504393,44,9,0.0,16399,566721300128778,21,30.6,-248.78680419921875,2.3924694061279297,16,0.0,0.0,1561097980,,,,0,,5,1.53,26.3,-1552.0362548828125,17.94957733154297,,,I,113015329388656
Raw,1682169917426,112979780000000,18,,-1366092155646026962,-0.32497692108154297,70.44504309305921,11.43915312839948,15.216542810504393,44,6,0.0,16399,566721300027256,21,30.8,-258.06646728515625,0.08799555152654648,16,0.0,0.0,1561097980,,,,0,,5,1.53,26.5,-1552.0362548828125,17.94957733154297,,,I,113015329388656
Raw,1682169917426,112979780000000,18,,-1366092155646026962,-0.32497692108154297,70.44504309305921,11.43915312839948,15.216542810504393,44,5,0.0,16399,566721303932264,17,33.2,2.006812572479248,1.687399983406067,16,0.0,0.0,1561097980,,,,0,,5,1.53,28.900000000000002,-1552.0362548828125,17.94957733154297,,,I,113015329388656
Raw,1682169917426,112979780000000,18,,-1366092155646026962,-0.32497692108154297,70.44504309305921,11.43915312839948,15.216542810504393,44,2,0.0,16399,566721305161108,12,37.2,4.80116081237793,1.097929835319519,16,0.0,0.0,1561097980,,,,0,,5,1.53,32.900000000000006,-1552.0362548828125,17.94957733154297,,,I,113015329388656
Raw,1682169917426,112979780000000,18,,-1366092155646026962,-0.32497692108154297,70.44504309305921,11.43915312839948,15.216542810504393,44,4,0.0,23567,566735345809534,16,34.1,212.45120239257812,0.028808681294322014,16,0.0,0.0,1575420030,,,,0,,6,4.06,29.8,-1469.150146484375,18.141630172729492,,,C,113015329388656
Raw,1682169917426,112979780000000,18,,-1366092155646026962,-0.32497692108154297,70.44504309305921,11.43915312839948,15.216542810504393,44,10,0.0,23567,566735342746712,21,30.5,-123.70463562011719,0.03560548275709152,16,0.0,0.0,1575420030,,,,0,,6,4.06,26.2,-1469.150146484375,18.141630172729492,,,C,113015329388656
Raw,1682169917426,112979780000000,18,,-1366092155646026962,-0.32497692108154297,70.44504309305921,11.43915312839948,15.216542810504393,44,11,0.0,23567,566735344203590,61,23.0,-234.00413513183594,1.630500078201294,16,0.0,0.0,1575420030,,,,0,,6,4.06,18.7,-1469.150146484375,18.141630172729492,,,C,113015329388656
Raw,1682169917426,112979780000000,18,,-1366092155646026962,-0.32497692108154297,70.44504309305921,11.43915312839948,15.216542810504393,44,12,0.0,23567,566735340312290,31,27.8,4.643174171447754,0.032706379890441895,16,0.0,0.0,1575420030,,,,0,,6,4.06,23.5,-1469.150146484375,18.141630172729492,,,C,113015329388656
Raw,1682169917426,112979780000000,18,,-1366092155646026962,-0.32497692108154297,70.44504309305921,11.43915312839948,15.216542810504393,44,24,0.0,23567,566735336947092,80,20.4,346.1251525878906,1.880500078201294,16,0.0,0.0,1575420030,,,,0,,6,4.06,16.099999999999998,-1469.150146484375,18.141630172729492,,,C,113015329388656
Raw,1682169917426,112979780000000,18,,-1366092155646026962,-0.32497692108154297,70.44504309305921,11.43915312839948,15.216542810504393,44,25,0.0,23567,566735336019920,19,31.6,202.48361206054688,0.03409552574157715,16,0.0,0.0,1575420030,,,,0,,6,4.06,27.3,-1469.150146484375,18.141630172729492,,,C,113015329388656
Fix,GPS,12.9853038300,80.2393421300,-71.0760498046875,0.0,4.150575,,1682169918000,0.014142135,,113015904984333,7.299448
Status,1682169918000,55,0,1,2,1575420030,24.70,336.0,29.0,1,1,0,21.2
Status,1682169918000,55,1,1,10,1575420030,37.40,263.0,21.0,1,1,0,33.9
Status,1682169918000,55,2,1,13,1575420030,17.50,45.0,23.0,1,1,0,14.0
Status,1682169918000,55,3,1,15,1575420030,35.80,45.0,54.0,1,1,0,32.3
Status,1682169918000,55,4,1,18,1575420030,24.20,340.0,30.0,1,1,0,20.7
Status,1682169918000,55,5,1,23,1575420030,26.50,296.0,41.0,1,1,0,23.0
Status,1682169918000,55,6,1,24,1575420030,19.20,136.0,23.0,1,1,0,15.700001
Status,1682169918000,55,7,1,29,1575420030,35.30,150.0,81.0,0,1,0,31.8
Status,1682169918000,55,8,1,5,1575420030,0.00,43.0,7.0,0,1,0,0.0
Status,1682169918000,55,9,1,11,1575420030,0.00,0.0,0.0,0,1,0,0.0
Status,1682169918000,55,10,1,12,1575420030,0.00,167.0,7.0,0,1,0,0.0
Status,1682169918000,55,11,1,25,1575420030,0.00,196.0,20.0,0,1,0,0.0
Status,1682169918000,55,12,1,26,1575420030,0.00,283.0,5.0,0,1,0,0.0
Status,1682169918000,55,13,1,32,1575420030,0.00,210.0,5.0,0,1,0,0.0
Status,1682169918000,55,14,4,195,1575420030,29.40,104.0,30.0,0,1,0,25.9
Status,1682169918000,55,15,2,128,1575420030,40.10,0.0,0.0,0,0,0,36.6
Status,1682169918000,55,16,3,6,1599750020,20.80,224.0,32.0,0,1,0,16.8
Status,1682169918000,55,17,3,18,1600312450,22.20,117.0,22.0,1,1,0,18.2
Status,1682169918000,55,18,3,5,1602562560,33.80,340.0,70.0,1,1,0,29.8
Status,1682169918000,55,19,3,19,1603687550,28.30,70.0,48.0,1,1,0,24.3
Status,1682169918000,55,20,3,4,1605374980,19.40,20.0,22.0,1,1,0,15.4
Status,1682169918000,55,21,3,9,1600875010,0.00,0.0,0.0,0,1,0,0.0
Status,1682169918000,55,22,3,20,1603124990,0.00,350.0,26.0,0,1,0,0.0
Status,1682169918000,55,23,5,22,1561097980,20.20,30.0,22.0,0,1,0,15.900001
Status,1682169918000,55,24,5,21,1561097980,40.00,341.0,66.0,0,1,0,35.7
Status,1682169918000,55,25,5,16,1561097980,35.20,116.0,42.0,1,1,0,30.900002
Status,1682169918000,55,26,5,14,1561097980,23.50,232.0,18.0,1,1,0,19.2
Status,1682169918000,55,27,5,13,1561097980,21.60,14.0,35.0,1,1,0,17.3
Status,1682169918000,55,28,5,12,1561097980,28.70,6.0,61.0,1,1,0,24.400002
Status,1682169918000,55,29,5,10,1561097980,25.60,175.0,39.0,1,1,0,21.3
Status,1682169918000,55,30,5,9,1561097980,32.20,145.0,38.0,1,1,0,27.900002
Status,1682169918000,55,31,5,7,1561097980,22.70,164.0,28.0,1,1,0,18.400002
Status,1682169918000,55,32,5,6,1561097980,32.50,125.0,42.0,1,1,0,28.2
Status,1682169918000,55,33,5,5,1561097980,31.80,242.0,61.0,1,1,0,27.5
Status,1682169918000,55,34,5,3,1561097980,30.90,108.0,52.0,0,1,0,26.599998
Status,1682169918000,55,35,5,2,1561097980,38.20,161.0,75.0,0,1,0,33.9
Status,1682169918000,55,36,5,1,1561097980,0.00,94.0,17.0,0,1,0,0.0
Status,1682169918000,55,37,5,8,1561097980,0.00,27.0,28.0,0,1,0,0.0
Status,1682169918000,55,38,5,11,1561097980,0.00,328.0,16.0,0,1,0,0.0
Status,1682169918000,55,39,5,24,1561097980,0.00,214.0,5.0,0,1,0,0.0
Status,1682169918000,55,40,5,26,1561097980,0.00,170.0,9.0,0,1,0,0.0
Status,1682169918000,55,41,5,39,1561097980,0.00,104.0,44.0,0,1,0,0.0
Status,1682169918000,55,42,5,40,1561097980,0.00,162.0,20.0,0,1,0,0.0
Status,1682169918000,55,43,5,61,1561097980,0.00,111.0,51.0,0,1,0,0.0
Status,1682169918000,55,44,6,4,1575420030,33.90,52.0,57.0,1,1,0,29.600002
Status,1682169918000,55,45,6,10,1575420030,31.20,42.0,44.0,1,1,0,26.900002
Status,1682169918000,55,46,6,11,1575420030,25.00,2.0,40.0,1,1,0,20.7
Status,1682169918000,55,47,6,12,1575420030,26.70,73.0,34.0,1,1,0,22.400002
Status,1682169918000,55,48,6,24,1575420030,20.40,201.0,21.0,1,1,0,16.099998
Status,1682169918000,55,49,6,25,1575420030,28.90,257.0,20.0,1,1,0,24.599998
Status,1682169918000,55,50,6,2,1575420030,0.00,0.0,0.0,0,1,0,0.0
Status,1682169918000,55,51,6,5,1575420030,0.00,210.0,11.0,0,1,0,0.0
Status,1682169918000,55,52,6,19,1575420030,0.00,36.0,2.0,0,1,0,0.0
Status,1682169918000,55,53,6,31,1575420030,0.00,158.0,2.0,0,1,0,0.0
Status,1682169918000,55,54,6,36,1575420030,0.00,319.0,11.0,0,1,0,0.0
Raw,1682169918426,112980780000000,18,,-1366092155646026942,-0.055672407150268555,59.37851165072061,11.351961944495919,10.738767015807001,44,2,0.0,16399,566736347446388,40,24.7,-346.3820495605469,0.8629999756813049,16,0.0,0.0,1575420030,,,,0,,1,3.15,21.2,0.0,0.0,,,C,113016325904385
Raw,1682169918426,112980780000000,18,,-1366092155646026942,-0.055672407150268555,59.37851165072061,11.351961944495919,10.738767015807001,44,10,0.0,16399,566736346899621,11,37.4,-196.06906127929688,0.04119833931326866,16,0.0,0.0,1575420030,,,,0,,1,3.15,33.9,0.0,0.0,,,C,113016325904385
Raw,1682169918426,112980780000000,18,,-1366092155646026942,-0.055672407150268555,59.37851165072061,11.351961944495919,10.738767015807001,44,15,0.0,16399,566736356756817,12,35.8,339.8575439453125,0.02699756994843483,16,0.0,0.0,1575420030,,,,0,,1,3.15,32.3,0.0,0.0,,,C,113016325904385
Raw,1682169918426,112980780000000,18,,-1366092155646026942,-0.055672407150268555,59.37851165072061,11.351961944495919,10.738767015807001,44,23,0.0,16399,566736352774778,31,26.5,2.04565691947937,0.7354999780654907,16,0.0,0.0,1575420030,,,,0,,1,3.15,23.0,0.0,0.0,,,C,113016325904385
Raw,1682169918426,112980780000000,18,,-1366092155646026942,-0.055672407150268555,59.37851165072061,11.351961944495919,10.738767015807001,44,29,0.0,16399,566736358111848,13,35.3,108.52725219726562,0.02489195019006729,16,0.0,0.0,1575420030,,,,0,,1,3.15,31.799999999999997,0.0,0.0,,,C,113016325904385
Raw,1682169918426,112980780000000,18,,-1366092155646026942,-0.055672407150268555,59.37851165072061,11.351961944495919,10.738767015807001,44,195,0.0,16399,566736298982152,24,29.4,-223.59982299804688,1.2342653274536133,16,0.0,0.0,1575420030,,,,0,,4,3.15,25.9,0.0,0.0,,,C,113016325904385
Raw,1682169918426,112980780000000,18,,-1366092155646026942,-0.055672407150268555,59.37851165072061,11.351961944495919,10.738767015807001,44,6,0.0,49359,59118354272104,80,20.8,-516.2014770507812,1.877500057220459,16,0.0,0.0,1599750020,,,,0,,3,0.71,16.8,3830.802490234375,21.620580673217773,,,C,113016325904385
Raw,1682169918426,112980780000000,18,,-1366092155646026942,-0.055672407150268555,59.37851165072061,11.351961944495919,10.738767015807001,44,18,0.0,49359,59118351476530,61,22.2,352.44964599609375,1.0069999694824219,16,0.0,0.0,1600312450,,,,0,,3,0.71,18.2,3830.802490234375,21.620580673217773,,,C,113016325904385
Raw,1682169918426,112980780000000,18,,-1366092155646026942,-0.055672407150268555,59.37851165072061,11.351961944495919,10.738767015807001,44,5,0.0,49359,59118361283374,16,33.8,273.6298828125,0.05616125464439392,16,0.0,0.0,1602562560,,,,0,,3,0.71,29.799999999999997,3830.802490234375,21.620580673217773,,,C,113016325904385
Raw,1682169918426,112980780000000,18,,-1366092155646026942,-0.055672407150268555,59.37851165072061,11.351961944495919,10.738767015807001,44,19,0.0,49359,59118357771732,27,28.3,-99.75089263916016,0.6180000305175781,16,0.0,0.0,1603687550,,,,0,,3,0.71,24.3,3830.802490234375,21.620580673217773,,,C,113016325904385
Raw,1682169918426,112980780000000,18,,-1366092155646026942,-0.055672407150268555,59.37851165072061,11.351961944495919,10.738767015807001,44,22,0.0,16399,566722342599204,957,20.2,542.5115356445312,7.2295002937316895,16,0.0,0.0,1561097980,,,,0,,5,0.8,15.899999999999999,-1550.8763427734375,16.958362579345703,,,I,113016325904385
Raw,1682169918426,112980780000000,18,,-1366092155646026942,-0.055672407150268555,59.37851165072061,11.351961944495919,10.738767015807001,44,21,0.0,16399,566722351867573,9,40.0,230.29698181152344,0.03235790133476257,16,0.0,0.0,1561097980,,,,0,,5,0.8,35.7,-1550.8763427734375,16.958362579345703,,,I,113016325904385
Raw,1682169918426,112980780000000,18,,-1366092155646026942,-0.055672407150268555,59.37851165072061,11.351961944495919,10.738767015807001,44,16,0.0,16399,566722300285618,14,35.2,-242.2454376220703,0.053082771599292755,16,0.0,0.0,1561097980,,,,0,,5,0.8,30.900000000000002,-1550.8763427734375,16.958362579345703,,,I,113016325904385
Raw,1682169918426,112980780000000,18,,-1366092155646026942,-0.055672407150268555,59.37851165072061,11.351961944495919,10.738767015807001,44,14,0.0,16399,566722342205618,53,23.5,-430.9558410644531,0.9404999613761902,16,0.0,0.0,1561097980,,,,0,,5,0.8,19.2,-1550.8763427734375,16.958362579345703,,,I,113016325904385
Raw,1682169918426,112980780000000,18,,-1366092155646026942,-0.055672407150268555,59.37851165072061,11.351961944495919,10.738767015807001,44,13,0.0,16399,566722298588854,70,21.6,6.481332778930664,1.7934999465942383,16,0.0,0.0,1561097980,,,,0,,5,0.8,17.3,-1550.8763427734375,16.958362579345703,,,I,113016325904385
Raw,1682169918426,112980780000000,18,,-1366092155646026942,-0.055672407150268555,59.37851165072061,11.351961944495919,10.738767015807001,44,12,0.0,16399,566722352725618,27,28.7,-287.94403076171875,0.6255000233650208,16,0.0,0.0,1561097980,,,,0,,5,0.8,24.4,-1550.8763427734375,16.958362579345703,,,I,113016325904385
Raw,1682169918426,112980780000000,18,,-1366092155646026942,-0.055672407150268555,59.37851165072061,11.351961944495919,10.738767015807001,44,10,0.0,16399,566722301113257,40,25.6,240.5870819091797,0.8119999766349792,16,0.0,0.0,1561097980,,,,0,,5,0.8,21.3,-1550.8763427734375,16.958362579345703,,,I,113016325904385
Raw,1682169918426,112980780000000,18,,-1366092155646026942,-0.055672407150268555,59.37851165072061,11.351961944495919,10.738767015807001,44,9,0.0,16399,566722300129611,19,32.2,-249.81016540527344,0.06944453716278076,16,0.0,0.0,1561097980,,,,0,,5,0.8,27.900000000000002,-1550.8763427734375,16.958362579345703,,,I,113016325904385
Raw,1682169918426,112980780000000,18,,-1366092155646026942,-0.055672407150268555,59.37851165072061,11.351961944495919,10.738767015807001,44,6,0.0,16399,566722300028130,17,32.5,-259.0990905761719,0.0594392791390419,16,0.0,0.0,1561097980,,,,0,,5,0.8,28.2,-1550.8763427734375,16.958362579345703,,,I,113016325904385
Raw,1682169918426,112980780000000,18,,-1366092155646026942,-0.055672407150268555,59.37851165072061,11.351961944495919,10.738767015807001,44,5,0.0,16399,566722303932275,19,31.8,-1.9780068397521973,2.0577001571655273,16,0.0,0.0,1561097980,,,,0,,5,0.8,27.5,-1550.8763427734375,16.958362579345703,,,I,113016325904385
Raw,1682169918426,112980780000000,18,,-1366092155646026942,-0.055672407150268555,59.37851165072061,11.351961944495919,10.738767015807001,44,2,0.0,16399,566722305161081,11,38.2,3.6505935192108154,1.4568709135055542,16,0.0,0.0,1561097980,,,,0,,5,0.8,33.900000000000006,-1550.8763427734375,16.958362579345703,,,I,113016325904385
Raw,1682169918426,112980780000000,18,,-1366092155646026942,-0.055672407150268555,59.37851165072061,11.351961944495919,10.738767015807001,44,4,0.0,23567,566736345808817,16,33.9,211.3145294189453,0.028808681294322014,16,0.0,0.0,1575420030,,,,0,,6,3.21,29.599999999999998,-1469.695068359375,16.948205947875977,,,C,113016325904385
Raw,1682169918426,112980780000000,18,,-1366092155646026942,-0.055672407150268555,59.37851165072061,11.351961944495919,10.738767015807001,44,10,0.0,23567,566736342747087,21,31.2,-124.88186645507812,0.03560548275709152,16,0.0,0.0,1575420030,,,,0,,6,3.21,26.9,-1469.695068359375,16.948205947875977,,,C,113016325904385
Raw,1682169918426,112980780000000,18,,-1366092155646026942,-0.055672407150268555,59.37851165072061,11.351961944495919,10.738767015807001,44,11,0.0,23567,566736344204354,46,25.0,-235.36471557617188,0.7894999980926514,16,0.0,0.0,1575420030,,,,0,,6,3.21,20.7,-1469.695068359375,16.948205947875977,,,C,113016325904385
Raw,1682169918426,112980780000000,18,,-1366092155646026942,-0.055672407150268555,59.37851165072061,11.351961944495919,10.738767015807001,44,12,0.0,23567,566736340312272,35,26.7,3.532444477081299,0.034552231431007385,16,0.0,0.0,1575420030,,,,0,,6,3.21,22.4,-1469.695068359375,16.948205947875977,,,C,113016325904385
Raw,1682169918426,112980780000000,18,,-1366092155646026942,-0.055672407150268555,59.37851165072061,11.351961944495919,10.738767015807001,44,25,0.0,23567,566736336019235,27,28.9,201.30838012695312,0.06319142878055573,16,0.0,0.0,1575420030,,,,0,,6,3.21,24.599999999999998,-1469.695068359375,16.948205947875977,,,C,113016325904385
Fix,GPS,12.9853064300,80.2393363000,-71.05905151367188,0.0,4.1076074,,1682169919000,0.080622576,,113016905174905,7.1695924
Status,1682169919000,55,0,1,2,1575420030,26.00,336.0,29.0,1,1,0,22.5
Status,1682169919000,55,1,1,10,1575420030,33.60,263.0,21.0,1,1,0,30.099998
Status,1682169919000,55,2,1,13,1575420030,17.50,45.0,23.0,1,1,0,14.0
Status,1682169919000,55,3,1,15,1575420030,34.30,45.0,54.0,1,1,0,30.8
Status,1682169919000,55,4,1,18,1575420030,19.90,340.0,30.0,1,1,0,16.4
Status,1682169919000,55,5,1,24,1575420030,18.20,136.0,23.0,1,1,0,14.700001
Status,1682169919000,55,6,1,29,1575420030,34.30,150.0,81.0,0,1,0,30.8
Status,1682169919000,55,7,1,5,1575420030,0.00,43.0,7.0,0,1,0,0.0
Status,1682169919000,55,8,1,11,1575420030,0.00,0.0,0.0,0,1,0,0.0
Status,1682169919000,55,9,1,12,1575420030,0.00,167.0,7.0,0,1,0,0.0
Status,1682169919000,55,10,1,23,1575420030,0.00,296.0,41.0,1,1,0,0.0
Status,1682169919000,55,11,1,25,1575420030,0.00,196.0,20.0,0,1,0,0.0
Status,1682169919000,55,12,1,26,1575420030,0.00,283.0,5.0,0,1,0,0.0
Status,1682169919000,55,13,1,32,1575420030,0.00,210.0,5.0,0,1,0,0.0
Status,1682169919000,55,14,4,195,1575420030,27.60,104.0,30.0,0,1,0,24.1
Status,1682169919000,55,15,2,128,1575420030,38.30,0.0,0.0,0,0,0,34.8
Status,1682169919000,55,16,3,6,1599750020,20.80,224.0,32.0,0,1,0,16.8
Status,1682169919000,55,17,3,18,1600312450,22.20,117.0,22.0,1,1,0,18.2
Status,1682169919000,55,18,3,5,1602562560,34.10,340.0,70.0,1,1,0,30.099998
Status,1682169919000,55,19,3,19,1603687550,27.10,70.0,48.0,1,1,0,23.1
Status,1682169919000,55,20,3,4,1605374980,19.40,20.0,22.0,1,1,0,15.4
Status,1682169919000,55,21,3,9,1600875010,0.00,0.0,0.0,0,1,0,0.0
Status,1682169919000,55,22,3,20,1603124990,0.00,350.0,26.0,0,1,0,0.0
Status,1682169919000,55,23,5,22,1561097980,19.90,30.0,22.0,0,1,0,15.599999
Status,1682169919000,55,24,5,21,1561097980,39.60,341.0,66.0,0,1,0,35.3
Status,1682169919000,55,25,5,16,1561097980,34.20,116.0,42.0,1,1,0,29.900002
Status,1682169919000,55,26,5,14,1561097980,23.50,232.0,18.0,1,1,0,19.2
Status,1682169919000,55,27,5,13,1561097980,21.60,14.0,35.0,1,1,0,17.3
Status,1682169919000,55,28,5,12,1561097980,27.70,6.0,61.0,1,1,0,23.400002
Status,1682169919000,55,29,5,10,1561097980,25.60,175.0,39.0,1,1,0,21.3
Status,1682169919000,55,30,5,9,1561097980,30.10,145.0,38.0,1,1,0,25.8
Status,1682169919000,55,31,5,7,1561097980,22.70,164.0,28.0,1,1,0,18.400002
Status,1682169919000,55,32,5,6,1561097980,32.10,125.0,42.0,1,1,0,27.8
Status,1682169919000,55,33,5,5,1561097980,31.80,242.0,61.0,1,1,0,27.5
Status,1682169919000,55,34,5,3,1561097980,27.40,108.0,52.0,0,1,0,23.099998
Status,1682169919000,55,35,5,2,1561097980,36.70,161.0,75.0,0,1,0,32.4
Status,1682169919000,55,36,5,1,1561097980,0.00,94.0,17.0,0,1,0,0.0
Status,1682169919000,55,37,5,8,1561097980,0.00,27.0,28.0,0,1,0,0.0
Status,1682169919000,55,38,5,11,1561097980,0.00,328.0,16.0,0,1,0,0.0
Status,1682169919000,55,39,5,24,1561097980,0.00,214.0,5.0,0,1,0,0.0
Status,1682169919000,55,40,5,26,1561097980,0.00,170.0,9.0,0,1,0,0.0
Status,1682169919000,55,41,5,39,1561097980,0.00,104.0,44.0,0,1,0,0.0
Status,1682169919000,55,42,5,40,1561097980,0.00,162.0,20.0,0,1,0,0.0
Status,1682169919000,55,43,5,61,1561097980,0.00,111.0,51.0,0,1,0,0.0
Status,1682169919000,55,44,6,4,1575420030,33.10,52.0,57.0,1,1,0,28.8
Status,1682169919000,55,45,6,10,1575420030,31.70,42.0,44.0,1,1,0,27.400002
Status,1682169919000,55,46,6,11,1575420030,23.10,2.0,40.0,1,1,0,18.8
Status,1682169919000,55,47,6,12,1575420030,23.70,73.0,34.0,1,1,0,19.400002
Status,1682169919000,55,48,6,24,1575420030,20.40,201.0,21.0,1,1,0,16.099998
Status,1682169919000,55,49,6,25,1575420030,23.80,257.0,20.0,1,1,0,19.5
Status,1682169919000,55,50,6,2,1575420030,0.00,0.0,0.0,0,1,0,0.0
Status,1682169919000,55,51,6,5,1575420030,0.00,210.0,11.0,0,1,0,0.0
Status,1682169919000,55,52,6,19,1575420030,0.00,36.0,2.0,0,1,0,0.0
Status,1682169919000,55,53,6,31,1575420030,0.00,158.0,2.0,0,1,0,0.0
Status,1682169919000,55,54,6,36,1575420030,0.00,319.0,11.0,0,1,0,0.0
Raw,1682169919426,112981780000000,18,,-1366092155646026927,-0.9256463050842285,55.71834844886325,7.635707727751093,10.778615254165496,44,2,0.0,16399,566737347447468,35,26.0,-350.121337890625,0.7429999709129333,16,0.0,0.0,1575420030,,,,0,,1,1.69,22.5,0.0,0.0,,,C,113017333720582
Raw,1682169919426,112981780000000,18,,-1366092155646026927,-0.9256463050842285,55.71834844886325,7.635707727751093,10.778615254165496,44,10,0.0,16399,566737346900294,14,33.6,-199.079833984375,0.043995656073093414,16,0.0,0.0,1575420030,,,,0,,1,1.69,30.1,0.0,0.0,,,C,113017333720582
Raw,1682169919426,112981780000000,18,,-1366092155646026927,-0.9256463050842285,55.71834844886325,7.635707727751093,10.778615254165496,44,15,0.0,16399,566737356755697,14,34.3,336.919921875,0.028995655477046967,16,0.0,0.0,1575420030,,,,0,,1,1.69,30.799999999999997,0.0,0.0,,,C,113017333720582
Raw,1682169919426,112981780000000,18,,-1366092155646026927,-0.9256463050842285,55.71834844886325,7.635707727751093,10.778615254165496,44,18,0.0,16399,566737349996976,80,19.9,-334.66949462890625,1.9600000381469727,16,0.0,0.0,1575420030,,,,0,,1,1.69,16.4,0.0,0.0,,,C,113017333720582
Raw,1682169919426,112981780000000,18,,-1366092155646026927,-0.9256463050842285,55.71834844886325,7.635707727751093,10.778615254165496,44,24,0.0,16399,566737348198093,106,18.2,-342.1099548339844,2.808500051498413,16,0.0,0.0,1575420030,,,,0,,1,1.69,14.7,0.0,0.0,,,C,113017333720582
Raw,1682169919426,112981780000000,18,,-1366092155646026927,-0.9256463050842285,55.71834844886325,7.635707727751093,10.778615254165496,44,29,0.0,16399,566737358111476,14,34.3,105.57648468017578,0.025995653122663498,16,0.0,0.0,1575420030,,,,0,,1,1.69,30.799999999999997,0.0,0.0,,,C,113017333720582
Raw,1682169919426,112981780000000,18,,-1366092155646026927,-0.9256463050842285,55.71834844886325,7.635707727751093,10.778615254165496,44,195,0.0,16399,566737298982872,27,27.6,-226.5160675048828,0.6664999723434448,16,0.0,0.0,1575420030,,,,0,,4,1.69,24.1,0.0,0.0,,,C,113017333720582
Raw,1682169919426,112981780000000,18,,-1366092155646026927,-0.9256463050842285,55.71834844886325,7.635707727751093,10.778615254165496,44,18,0.0,49359,59119351475477,61,22.2,350.77301025390625,1.0069999694824219,16,0.0,0.0,1600312450,,,,0,,3,0.06,18.2,3830.802490234375,21.620580673217773,,,C,113017333720582
Raw,1682169919426,112981780000000,18,,-1366092155646026927,-0.9256463050842285,55.71834844886325,7.635707727751093,10.778615254165496,44,5,0.0,49359,59119361282503,14,34.1,270.6771545410156,0.05133482813835144,16,0.0,0.0,1602562560,,,,0,,3,0.06,30.1,3830.802490234375,21.620580673217773,,,C,113017333720582
Raw,1682169919426,112981780000000,18,,-1366092155646026927,-0.9256463050842285,55.71834844886325,7.635707727751093,10.778615254165496,44,19,0.0,49359,59119357772203,31,27.1,-102.4334716796875,0.6679999828338623,16,0.0,0.0,1603687550,,,,0,,3,0.06,23.1,3830.802490234375,21.620580673217773,,,C,113017333720582
Raw,1682169919426,112981780000000,18,,-1366092155646026927,-0.9256463050842285,55.71834844886325,7.635707727751093,10.778615254165496,44,22,0.0,16399,566723342597407,1113,19.9,542.146728515625,8.069500923156738,16,0.0,0.0,1561097980,,,,0,,5,0.43,15.599999999999998,-1551.2020263671875,16.135425567626953,,,I,113017333720582
Raw,1682169919426,112981780000000,18,,-1366092155646026927,-0.9256463050842285,55.71834844886325,7.635707727751093,10.778615254165496,44,21,0.0,16399,566723351866806,9,39.6,227.3105010986328,0.03235790133476257,16,0.0,0.0,1561097980,,,,0,,5,0.43,35.300000000000004,-1551.2020263671875,16.135425567626953,,,I,113017333720582
Raw,1682169919426,112981780000000,18,,-1366092155646026927,-0.9256463050842285,55.71834844886325,7.635707727751093,10.778615254165496,44,16,0.0,16399,566723300286418,16,34.2,-245.27964782714844,0.05803739279508591,16,0.0,0.0,1561097980,,,,0,,5,0.43,29.900000000000002,-1551.2020263671875,16.135425567626953,,,I,113017333720582
Raw,1682169919426,112981780000000,18,,-1366092155646026927,-0.9256463050842285,55.71834844886325,7.635707727751093,10.778615254165496,44,12,0.0,16399,566723352726589,31,27.7,-291.07427978515625,0.6754999756813049,16,0.0,0.0,1561097980,,,,0,,5,0.43,23.4,-1551.2020263671875,16.135425567626953,,,I,113017333720582
Raw,1682169919426,112981780000000,18,,-1366092155646026927,-0.9256463050842285,55.71834844886325,7.635707727751093,10.778615254165496,44,9,0.0,16399,566723300130462,24,30.1,-252.90109252929688,0.12020057439804077,16,0.0,0.0,1561097980,,,,0,,5,0.43,25.8,-1551.2020263671875,16.135425567626953,,,I,113017333720582
Raw,1682169919426,112981780000000,18,,-1366092155646026927,-0.9256463050842285,55.71834844886325,7.635707727751093,10.778615254165496,44,6,0.0,16399,566723300028982,19,32.1,-262.13189697265625,0.06944453716278076,16,0.0,0.0,1561097980,,,,0,,5,0.43,27.8,-1551.2020263671875,16.135425567626953,,,I,113017333720582
Raw,1682169919426,112981780000000,18,,-1366092155646026927,-0.9256463050842285,55.71834844886325,7.635707727751093,10.778615254165496,44,3,0.0,16399,566723303432201,31,27.4,8.612971305847168,5.037600040435791,16,0.0,0.0,1561097980,,,,0,,5,0.43,23.099999999999998,-1551.2020263671875,16.135425567626953,,,I,113017333720582
Raw,1682169919426,112981780000000,18,,-1366092155646026927,-0.9256463050842285,55.71834844886325,7.635707727751093,10.778615254165496,44,2,0.0,16399,566723305161079,12,36.7,-1.5651220083236694,1.2348999977111816,16,0.0,0.0,1561097980,,,,0,,5,0.43,32.400000000000006,-1551.2020263671875,16.135425567626953,,,I,113017333720582
Raw,1682169919426,112981780000000,18,,-1366092155646026927,-0.9256463050842285,55.71834844886325,7.635707727751093,10.778615254165496,44,4,0.0,23567,566737345808111,17,33.1,208.33328247070312,0.030407149344682693,16,0.0,0.0,1575420030,,,,0,,6,1.62,28.8,-1470.0462646484375,15.958539962768555,,,C,113017333720582
Raw,1682169919426,112981780000000,18,,-1366092155646026927,-0.9256463050842285,55.71834844886325,7.635707727751093,10.778615254165496,44,10,0.0,23567,566737342747536,19,31.7,-127.94461822509766,0.03109552338719368,16,0.0,0.0,1575420030,,,,0,,6,1.62,27.4,-1470.0462646484375,15.958539962768555,,,C,113017333720582
Raw,1682169919426,112981780000000,18,,-1366092155646026927,-0.9256463050842285,55.71834844886325,7.635707727751093,10.778615254165496,44,11,0.0,23567,566737344205169,61,23.1,-239.8461456298828,0.9194999933242798,16,0.0,0.0,1575420030,,,,0,,6,1.62,18.8,-1470.0462646484375,15.958539962768555,,,C,113017333720582
Raw,1682169919426,112981780000000,18,,-1366092155646026927,-0.9256463050842285,55.71834844886325,7.635707727751093,10.778615254165496,44,12,0.0,23567,566737340312277,53,23.7,0.39020439982414246,1.831723690032959,16,0.0,0.0,1575420030,,,,0,,6,1.62,19.4,-1470.0462646484375,15.958539962768555,,,C,113017333720582
Raw,1682169919426,112981780000000,18,,-1366092155646026927,-0.9256463050842285,55.71834844886325,7.635707727751093,10.778615254165496,44,25,0.0,23567,566737336018607,53,23.8,198.1575469970703,0.6899616718292236,16,0.0,0.0,1575420030,,,,0,,6,1.62,19.5,-1470.0462646484375,15.958539962768555,,,C,113017333720582
Fix,GPS,12.9853076800,80.2393334000,-71.0419921875,0.0,4.0765314,,1682169920000,0.080622576,,113017905464697,7.0748386
Status,1682169920000,55,0,1,2,1575420030,25.20,336.0,29.0,1,1,0,21.7
Status,1682169920000,55,1,1,10,1575420030,33.40,263.0,21.0,1,1,0,29.900002
Status,1682169920000,55,2,1,13,1575420030,17.50,45.0,23.0,1,1,0,14.0
Status,1682169920000,55,3,1,15,1575420030,35.50,45.0,54.0,1,1,0,32.0
Status,1682169920000,55,4,1,18,1575420030,19.90,340.0,30.0,1,1,0,16.4
Status,1682169920000,55,5,1,24,1575420030,18.20,136.0,23.0,1,1,0,14.700001
Status,1682169920000,55,6,1,29,1575420030,33.90,150.0,81.0,0,1,0,30.400002
Status,1682169920000,55,7,1,5,1575420030,0.00,43.0,7.0,0,1,0,0.0
Status,1682169920000,55,8,1,11,1575420030,0.00,0.0,0.0,0,1,0,0.0
Status,1682169920000,55,9,1,12,1575420030,0.00,167.0,7.0,0,1,0,0.0
Status,1682169920000,55,10,1,23,1575420030,0.00,296.0,41.0,1,1,0,0.0
Status,1682169920000,55,11,1,25,1575420030,0.00,196.0,20.0,0,1,0,0.0
Status,1682169920000,55,12,1,26,1575420030,0.00,283.0,5.0,0,1,0,0.0
Status,1682169920000,55,13,1,32,1575420030,0.00,210.0,5.0,0,1,0,0.0
Status,1682169920000,55,14,4,195,1575420030,28.10,104.0,30.0,0,1,0,24.6
Status,1682169920000,55,15,2,128,1575420030,39.60,0.0,0.0,0,0,0,36.1
Status,1682169920000,55,16,3,6,1599750020,20.80,224.0,32.0,0,1,0,16.8
Status,1682169920000,55,17,3,18,1600312450,22.30,117.0,22.0,1,1,0,18.3
Status,1682169920000,55,18,3,5,1602562560,33.90,340.0,70.0,1,1,0,29.900002
Status,1682169920000,55,19,3,19,1603687550,26.50,70.0,48.0,1,1,0,22.5
Status,1682169920000,55,20,3,4,1605374980,19.40,20.0,22.0,1,1,0,15.4
Status,1682169920000,55,21,3,9,1600875010,0.00,0.0,0.0,0,1,0,0.0
Status,1682169920000,55,22,3,20,1603124990,0.00,350.0,26.0,0,1,0,0.0
Status,1682169920000,55,23,5,22,1561097980,19.90,30.0,22.0,0,1,0,15.599999
Status,1682169920000,55,24,5,21,1561097980,40.00,341.0,66.0,0,1,0,35.7
Status,1682169920000,55,25,5,16,1561097980,33.30,116.0,42.0,1,1,0,29.0
Status,1682169920000,55,26,5,14,1561097980,22.80,232.0,18.0,1,1,0,18.5
Status,1682169920000,55,27,5,13,1561097980,21.60,14.0,35.0,1,1,0,17.3
Status,1682169920000,55,28,5,12,1561097980,29.40,6.0,61.0,1,1,0,25.099998
Status,1682169920000,55,29,5,10,1561097980,25.60,175.0,39.0,1,1,0,21.3
Status,1682169920000,55,30,5,9,1561097980,29.40,145.0,38.0,1,1,0,25.099998
Status,1682169920000,55,31,5,7,1561097980,22.70,164.0,28.0,1,1,0,18.400002
Status,1682169920000,55,32,5,6,1561097980,31.80,125.0,42.0,1,1,0,27.5
Status,1682169920000,55,33,5,5,1561097980,31.30,242.0,61.0,1,1,0,27.0
Status,1682169920000,55,34,5,3,1561097980,27.40,108.0,52.0,0,1,0,23.099998
Status,1682169920000,55,35,5,2,1561097980,37.30,161.0,75.0,0,1,0,33.0
Status,1682169920000,55,36,5,1,1561097980,0.00,94.0,17.0,0,1,0,0.0
Status,1682169920000,55,37,5,8,1561097980,0.00,27.0,28.0,0,1,0,0.0
Status,1682169920000,55,38,5,11,1561097980,0.00,328.0,16.0,0,1,0,0.0
Status,1682169920000,55,39,5,24,1561097980,0.00,214.0,5.0,0,1,0,0.0
Status,1682169920000,55,40,5,26,1561097980,0.00,170.0,9.0,0,1,0,0.0
Status,1682169920000,55,41,5,39,1561097980,0.00,104.0,44.0,0,1,0,0.0
Status,1682169920000,55,42,5,40,1561097980,0.00,162.0,20.0,0,1,0,0.0
Status,1682169920000,55,43,5,61,1561097980,0.00,111.0,51.0,0,1,0,0.0
Status,1682169920000,55,44,6,4,1575420030,32.80,52.0,57.0,1,1,0,28.5
Status,1682169920000,55,45,6,10,1575420030,31.20,42.0,44.0,1,1,0,26.900002
Status,1682169920000,55,46,6,11,1575420030,22.20,2.0,40.0,1,1,0,17.900002
Status,1682169920000,55,47,6,12,1575420030,26.90,73.0,34.0,1,1,0,22.599998
Status,1682169920000,55,48,6,24,1575420030,20.40,201.0,21.0,1,1,0,16.099998
Status,1682169920000,55,49,6,25,1575420030,25.10,257.0,20.0,1,1,0,20.8
Status,1682169920000,55,50,6,2,1575420030,0.00,0.0,0.0,0,1,0,0.0
Status,1682169920000,55,51,6,5,1575420030,0.00,210.0,11.0,0,1,0,0.0
Status,1682169920000,55,52,6,19,1575420030,0.00,36.0,2.0,0,1,0,0.0
Status,1682169920000,55,53,6,31,1575420030,0.00,158.0,2.0,0,1,0,0.0
Status,1682169920000,55,54,6,36,1575420030,0.00,319.0,11.0,0,1,0,0.0
Raw,1682169920426,112982780000000,18,,-1366092155646026935,-0.6239587068557739,59.52200444880873,-2.031986978023597,14.19368865031032,44,2,0.0,16399,566738347448660,40,25.2,-350.9490966796875,0.8029999732971191,16,0.0,0.0,1575420030,,,,0,,1,2.81,21.7,0.0,0.0,,,C,113018337240842
Raw,1682169920426,112982780000000,18,,-1366092155646026935,-0.6239587068557739,59.52200444880873,-2.031986978023597,14.19368865031032,44,10,0.0,16399,566738346900994,16,33.4,-200.10552978515625,0.04890523478388786,16,0.0,0.0,1575420030,,,,0,,1,2.81,29.9,0.0,0.0,,,C,113018337240842
Raw,1682169920426,112982780000000,18,,-1366092155646026935,-0.6239587068557739,59.52200444880873,-2.031986978023597,14.19368865031032,44,15,0.0,16399,566738356754577,12,35.5,335.9606628417969,0.02699756994843483,16,0.0,0.0,1575420030,,,,0,,1,2.81,32.0,0.0,0.0,,,C,113018337240842
Raw,1682169920426,112982780000000,18,,-1366092155646026935,-0.6239587068557739,59.52200444880873,-2.031986978023597,14.19368865031032,44,29,0.0,16399,566738358111139,14,33.9,104.624755859375,0.025995653122663498,16,0.0,0.0,1575420030,,,,0,,1,2.81,30.4,0.0,0.0,,,C,113018337240842
Raw,1682169920426,112982780000000,18,,-1366092155646026935,-0.6239587068557739,59.52200444880873,-2.031986978023597,14.19368865031032,44,195,0.0,16399,566738298983615,27,28.1,-228.02891540527344,0.6165000200271606,16,0.0,0.0,1575420030,,,,0,,4,2.81,24.6,0.0,0.0,,,C,113018337240842
Raw,1682169920426,112982780000000,18,,-1366092155646026935,-0.6239587068557739,59.52200444880873,-2.031986978023597,14.19368865031032,44,18,0.0,49359,59120351474147,61,22.3,347.8786926269531,1.0069999694824219,16,0.0,0.0,1600312450,,,,0,,3,0.66,18.3,3830.802490234375,21.620580673217773,,,C,113018337240842
Raw,1682169920426,112982780000000,18,,-1366092155646026935,-0.6239587068557739,59.52200444880873,-2.031986978023597,14.19368865031032,44,5,0.0,49359,59120361281572,16,33.9,269.7548828125,0.05616125464439392,16,0.0,0.0,1602562560,,,,0,,3,0.66,29.9,3830.802490234375,21.620580673217773,,,C,113018337240842
Raw,1682169920426,112982780000000,18,,-1366092155646026935,-0.6239587068557739,59.52200444880873,-2.031986978023597,14.19368865031032,44,19,0.0,49359,59120357772390,35,26.5,-103.46163940429688,0.7279999852180481,16,0.0,0.0,1603687550,,,,0,,3,0.66,22.5,3830.802490234375,21.620580673217773,,,C,113018337240842
Raw,1682169920426,112982780000000,18,,-1366092155646026935,-0.6239587068557739,59.52200444880873,-2.031986978023597,14.19368865031032,44,22,0.0,16399,566724342595608,1139,19.9,541.6090087890625,8.819500923156738,16,0.0,0.0,1561097980,,,,0,,5,1.04,15.599999999999998,-1551.306640625,15.495295524597168,,,I,113018337240842
Raw,1682169920426,112982780000000,18,,-1366092155646026935,-0.6239587068557739,59.52200444880873,-2.031986978023597,14.19368865031032,44,21,0.0,16399,566724351866044,9,40.0,226.30517578125,0.03235790133476257,16,0.0,0.0,1561097980,,,,0,,5,1.04,35.7,-1551.306640625,15.495295524597168,,,I,113018337240842
Raw,1682169920426,112982780000000,18,,-1366092155646026935,-0.6239587068557739,59.52200444880873,-2.031986978023597,14.19368865031032,44,16,0.0,16399,566724300287254,16,33.3,-246.33078002929688,0.05803739279508591,16,0.0,0.0,1561097980,,,,0,,5,1.04,28.999999999999996,-1551.306640625,15.495295524597168,,,I,113018337240842
Raw,1682169920426,112982780000000,18,,-1366092155646026935,-0.6239587068557739,59.52200444880873,-2.031986978023597,14.19368865031032,44,14,0.0,16399,566724342208475,61,22.8,-434.5661926269531,1.689500093460083,16,0.0,0.0,1561097980,,,,0,,5,1.04,18.5,-1551.306640625,15.495295524597168,,,I,113018337240842
Raw,1682169920426,112982780000000,18,,-1366092155646026935,-0.6239587068557739,59.52200444880873,-2.031986978023597,14.19368865031032,44,12,0.0,16399,566724352727559,24,29.4,-291.9573059082031,1.2544375658035278,16,0.0,0.0,1561097980,,,,0,,5,1.04,25.099999999999998,-1551.306640625,15.495295524597168,,,I,113018337240842
Raw,1682169920426,112982780000000,18,,-1366092155646026935,-0.6239587068557739,59.52200444880873,-2.031986978023597,14.19368865031032,44,9,0.0,16399,566724300131307,24,29.4,-253.92440795898438,1.2724374532699585,16,0.0,0.0,1561097980,,,,0,,5,1.04,25.099999999999998,-1551.306640625,15.495295524597168,,,I,113018337240842
Raw,1682169920426,112982780000000,18,,-1366092155646026935,-0.6239587068557739,59.52200444880873,-2.031986978023597,14.19368865031032,44,6,0.0,16399,566724300029865,19,31.8,-263.152587890625,0.06944453716278076,16,0.0,0.0,1561097980,,,,0,,5,1.04,27.5,-1551.306640625,15.495295524597168,,,I,113018337240842
Raw,1682169920426,112982780000000,18,,-1366092155646026935,-0.6239587068557739,59.52200444880873,-2.031986978023597,14.19368865031032,44,5,0.0,16399,566724303932268,19,31.3,-5.972428321838379,2.7177000045776367,16,0.0,0.0,1561097980,,,,0,,5,1.04,27.0,-1551.306640625,15.495295524597168,,,I,113018337240842
Raw,1682169920426,112982780000000,18,,-1366092155646026935,-0.6239587068557739,59.52200444880873,-2.031986978023597,14.19368865031032,44,2,0.0,16399,566724305161082,11,37.3,-0.4754337966442108,0.3046339750289917,16,0.0,0.0,1561097980,,,,0,,5,1.04,33.0,-1551.306640625,15.495295524597168,,,I,113018337240842
Raw,1682169920426,112982780000000,18,,-1366092155646026935,-0.6239587068557739,59.52200444880873,-2.031986978023597,14.19368865031032,44,4,0.0,23567,566738345807432,17,32.8,207.3446502685547,0.030407149344682693,16,0.0,0.0,1575420030,,,,0,,6,2.7,28.499999999999996,-1470.6097412109375,15.209046363830566,,,C,113018337240842
Raw,1682169920426,112982780000000,18,,-1366092155646026935,-0.6239587068557739,59.52200444880873,-2.031986978023597,14.19368865031032,44,10,0.0,23567,566738342747957,21,31.2,-129.0112762451172,0.03560548275709152,16,0.0,0.0,1575420030,,,,0,,6,2.7,26.9,-1470.6097412109375,15.209046363830566,,,C,113018337240842
Raw,1682169920426,112982780000000,18,,-1366092155646026935,-0.6239587068557739,59.52200444880873,-2.031986978023597,14.19368865031032,44,11,0.0,23567,566738344205971,70,22.2,-240.24575805664062,0.999500036239624,16,0.0,0.0,1575420030,,,,0,,6,2.7,17.9,-1470.6097412109375,15.209046363830566,,,C,113018337240842
Raw,1682169920426,112982780000000,18,,-1366092155646026935,-0.6239587068557739,59.52200444880873,-2.031986978023597,14.19368865031032,44,12,0.0,23567,566738340312295,35,26.9,-0.4571395516395569,0.6054332256317139,16,0.0,0.0,1575420030,,,,0,,6,2.7,22.599999999999998,-1470.6097412109375,15.209046363830566,,,C,113018337240842
Raw,1682169920426,112982780000000,18,,-1366092155646026935,-0.6239587068557739,59.52200444880873,-2.031986978023597,14.19368865031032,44,25,0.0,23567,566738336017966,46,25.1,197.27386474609375,1.20550537109375,16,0.0,0.0,1575420030,,,,0,,6,2.7,20.8,-1470.6097412109375,15.209046363830566,,,C,113018337240842
Fix,GPS,12.9853082900,80.2393319300,-71.02822875976562,0.0,4.0050073,,1682169921000,0.080622576,,113018905530582,6.8544817
Status,1682169921000,55,0,1,2,1575420030,22.90,336.0,29.0,1,1,0,19.4
Status,1682169921000,55,1,1,10,1575420030,29.40,263.0,21.0,1,1,0,25.9
Status,1682169921000,55,2,1,13,1575420030,17.50,45.0,23.0,0,1,0,14.0
Status,1682169921000,55,3,1,15,1575420030,32.30,45.0,54.0,1,1,0,28.8
Status,1682169921000,55,4,1,18,1575420030,19.90,340.0,30.0,1,1,0,16.4
Status,1682169921000,55,5,1,24,1575420030,18.20,136.0,23.0,1,1,0,14.700001
Status,1682169921000,55,6,1,29,1575420030,29.40,150.0,81.0,0,1,0,25.9
Status,1682169921000,55,7,1,5,1575420030,0.00,43.0,7.0,0,1,0,0.0
Status,1682169921000,55,8,1,11,1575420030,0.00,0.0,0.0,0,1,0,0.0
Status,1682169921000,55,9,1,12,1575420030,0.00,167.0,7.0,0,1,0,0.0
Status,1682169921000,55,10,1,23,1575420030,0.00,296.0,41.0,1,1,0,0.0
Status,1682169921000,55,11,1,25,1575420030,0.00,196.0,20.0,0,1,0,0.0
Status,1682169921000,55,12,1,26,1575420030,0.00,283.0,5.0,0,1,0,0.0
Status,1682169921000,55,13,1,32,1575420030,0.00,210.0,5.0,0,1,0,0.0
Status,1682169921000,55,14,4,195,1575420030,24.90,104.0,30.0,0,1,0,21.4
Status,1682169921000,55,15,2,128,1575420030,35.70,0.0,0.0,0,0,0,32.2
Status,1682169921000,55,16,3,6,1599750020,20.80,224.0,32.0,0,1,0,16.8
Status,1682169921000,55,17,3,18,1600312450,22.30,117.0,22.0,1,1,0,18.3
Status,1682169921000,55,18,3,5,1602562560,33.40,340.0,70.0,1,1,0,29.400002
Status,1682169921000,55,19,3,19,1603687550,25.40,70.0,48.0,1,1,0,21.4
Status,1682169921000,55,20,3,4,1605374980,19.40,20.0,22.0,1,1,0,15.4
Status,1682169921000,55,21,3,9,1600875010,0.00,0.0,0.0,0,1,0,0.0
Status,1682169921000,55,22,3,20,1603124990,0.00,350.0,26.0,0,1,0,0.0
Status,1682169921000,55,23,5,22,1561097980,20.00,30.0,22.0,0,1,0,15.7
Status,1682169921000,55,24,5,21,1561097980,38.40,341.0,66.0,0,1,0,34.100002
Status,1682169921000,55,25,5,16,1561097980,30.30,116.0,42.0,1,1,0,26.0
Status,1682169921000,55,26,5,14,1561097980,22.60,232.0,18.0,1,1,0,18.3
Status,1682169921000,55,27,5,13,1561097980,19.80,14.0,35.0,1,1,0,15.499999
Status,1682169921000,55,28,5,12,1561097980,28.30,6.0,61.0,1,1,0,24.0
Status,1682169921000,55,29,5,10,1561097980,25.60,175.0,39.0,1,1,0,21.3
Status,1682169921000,55,30,5,9,1561097980,26.50,145.0,38.0,1,1,0,22.2
Status,1682169921000,55,31,5,8,1561097980,15.50,27.0,28.0,0,1,0,11.2
Status,1682169921000,55,32,5,7,1561097980,22.70,164.0,28.0,0,1,0,18.400002
Status,1682169921000,55,33,5,6,1561097980,29.30,125.0,42.0,1,1,0,25.0
Status,1682169921000,55,34,5,5,1561097980,31.30,242.0,61.0,1,1,0,27.0
Status,1682169921000,55,35,5,3,1561097980,27.40,108.0,52.0,0,1,0,23.099998
Status,1682169921000,55,36,5,2,1561097980,34.60,161.0,75.0,0,1,0,30.3
Status,1682169921000,55,37,5,1,1561097980,0.00,94.0,17.0,0,1,0,0.0
Status,1682169921000,55,38,5,11,1561097980,0.00,328.0,16.0,0,1,0,0.0
Status,1682169921000,55,39,5,24,1561097980,0.00,214.0,5.0,0,1,0,0.0
Status,1682169921000,55,40,5,26,1561097980,0.00,170.0,9.0,0,1,0,0.0
Status,1682169921000,55,41,5,39,1561097980,0.00,104.0,44.0,0,1,0,0.0
Status,1682169921000,55,42,5,40,1561097980,0.00,162.0,20.0,0,1,0,0.0
Status,1682169921000,55,43,5,61,1561097980,0.00,111.0,51.0,0,1,0,0.0
Status,1682169921000,55,44,6,4,1575420030,29.90,52.0,57.0,1,1,0,25.599998
Status,1682169921000,55,45,6,10,1575420030,28.50,42.0,44.0,1,1,0,24.2
Status,1682169921000,55,46,6,11,1575420030,22.20,2.0,40.0,1,1,0,17.900002
Status,1682169921000,55,47,6,12,1575420030,22.90,73.0,34.0,1,1,0,18.599998
Status,1682169921000,55,48,6,24,1575420030,20.40,201.0,21.0,1,1,0,16.099998
Status,1682169921000,55,49,6,25,1575420030,22.70,257.0,20.0,1,1,0,18.400002
Status,1682169921000,55,50,6,2,1575420030,0.00,0.0,0.0,0,1,0,0.0
Status,1682169921000,55,51,6,5,1575420030,0.00,210.0,11.0,0,1,0,0.0
Status,1682169921000,55,52,6,19,1575420030,0.00,36.0,2.0,0,1,0,0.0
Status,1682169921000,55,53,6,31,1575420030,0.00,158.0,2.0,0,1,0,0.0
Status,1682169921000,55,54,6,36,1575420030,0.00,319.0,11.0,0,1,0,0.0
Raw,1682169921426,112983780000000,18,,-1366092155646026943,-0.8792020082473755,61.136721342336386,-5.94612723152631,17.23650000412034,44,2,0.0,16399,566739347449925,53,22.9,-352.471435546875,1.0130000114440918,16,0.0,0.0,1575420030,,,,0,,1,-0.62,19.4,0.0,0.0,,,C,113019331870061
Raw,1682169921426,112983780000000,18,,-1366092155646026943,-0.8792020082473755,61.136721342336386,-5.94612723152631,17.23650000412034,44,10,0.0,16399,566739346901677,24,29.4,-201.25701904296875,0.11050329357385635,16,0.0,0.0,1575420030,,,,0,,1,-0.62,25.9,0.0,0.0,,,C,113019331870061
Raw,1682169921426,112983780000000,18,,-1366092155646026943,-0.8792020082473755,61.136721342336386,-5.94612723152631,17.23650000412034,44,15,0.0,16399,566739356753474,17,32.3,334.8804626464844,0.03529437631368637,16,0.0,0.0,1575420030,,,,0,,1,-0.62,28.799999999999997,0.0,0.0,,,C,113019331870061
Raw,1682169921426,112983780000000,18,,-1366092155646026943,-0.8792020082473755,61.136721342336386,-5.94612723152631,17.23650000412034,44,29,0.0,16399,566739358110756,24,29.4,103.55928039550781,0.6633843183517456,16,0.0,0.0,1575420030,,,,0,,1,-0.62,25.9,0.0,0.0,,,C,113019331870061
Raw,1682169921426,112983780000000,18,,-1366092155646026943,-0.8792020082473755,61.136721342336386,-5.94612723152631,17.23650000412034,44,195,0.0,16399,566739298984320,40,24.9,-228.31436157226562,0.8464999794960022,16,0.0,0.0,1575420030,,,,0,,4,-0.62,21.4,0.0,0.0,,,C,113019331870061
Raw,1682169921426,112983780000000,18,,-1366092155646026943,-0.8792020082473755,61.136721342336386,-5.94612723152631,17.23650000412034,44,5,0.0,49359,59121361280619,16,33.4,268.6927490234375,0.05616125464439392,16,0.0,0.0,1602562560,,,,0,,3,-0.73,29.4,3830.802490234375,21.620580673217773,,,C,113019331870061
Raw,1682169921426,112983780000000,18,,-1366092155646026943,-0.8792020082473755,61.136721342336386,-5.94612723152631,17.23650000412034,44,19,0.0,49359,59121357772961,40,25.4,-105.0225830078125,0.7879999876022339,16,0.0,0.0,1603687550,,,,0,,3,-0.73,21.4,3830.802490234375,21.620580673217773,,,C,113019331870061
Raw,1682169921426,112983780000000,18,,-1366092155646026943,-0.8792020082473755,61.136721342336386,-5.94612723152631,17.23650000412034,44,22,0.0,16399,566725342593816,1035,20.0,541.0328369140625,9.479499816894531,16,0.0,0.0,1561097980,,,,0,,5,0.1,15.7,-1551.1507568359375,14.979616165161133,,,I,113019331870061
Raw,1682169921426,112983780000000,18,,-1366092155646026943,-0.8792020082473755,61.136721342336386,-5.94612723152631,17.23650000412034,44,21,0.0,16399,566725351865288,10,38.4,225.17225646972656,0.03295322507619858,16,0.0,0.0,1561097980,,,,0,,5,0.1,34.1,-1551.1507568359375,14.979616165161133,,,I,113019331870061
Raw,1682169921426,112983780000000,18,,-1366092155646026943,-0.8792020082473755,61.136721342336386,-5.94612723152631,17.23650000412034,44,16,0.0,16399,566725300288065,21,30.3,-247.64242553710938,2.968587875366211,16,0.0,0.0,1561097980,,,,0,,5,0.1,26.0,-1551.1507568359375,14.979616165161133,,,I,113019331870061
Raw,1682169921426,112983780000000,18,,-1366092155646026943,-0.8792020082473755,61.136721342336386,-5.94612723152631,17.23650000412034,44,14,0.0,16399,566725342209941,61,22.6,-435.99688720703125,1.0205000638961792,16,0.0,0.0,1561097980,,,,0,,5,0.1,18.3,-1551.1507568359375,14.979616165161133,,,I,113019331870061
Raw,1682169921426,112983780000000,18,,-1366092155646026943,-0.8792020082473755,61.136721342336386,-5.94612723152631,17.23650000412034,44,13,0.0,16399,566725298588841,92,19.8,3.5527305603027344,2.7235000133514404,16,0.0,0.0,1561097980,,,,0,,5,0.1,15.5,-1551.1507568359375,14.979616165161133,,,I,113019331870061
Raw,1682169921426,112983780000000,18,,-1366092155646026943,-0.8792020082473755,61.136721342336386,-5.94612723152631,17.23650000412034,44,12,0.0,16399,566725352728509,27,28.3,-292.78338623046875,0.6255000233650208,16,0.0,0.0,1561097980,,,,0,,5,0.1,24.0,-1551.1507568359375,14.979616165161133,,,I,113019331870061
Raw,1682169921426,112983780000000,18,,-1366092155646026943,-0.8792020082473755,61.136721342336386,-5.94612723152631,17.23650000412034,44,9,0.0,16399,566725300132159,35,26.5,-255.23968505859375,0.7534999847412109,16,0.0,0.0,1561097980,,,,0,,5,0.1,22.2,-1551.1507568359375,14.979616165161133,,,I,113019331870061
Raw,1682169921426,112983780000000,18,,-1366092155646026943,-0.8792020082473755,61.136721342336386,-5.94612723152631,17.23650000412034,44,8,0.0,16399,566725297280040,159,15.5,-9.256303787231445,9.837000846862793,16,0.0,0.0,1561097980,,,,0,,5,0.1,11.2,-1551.1507568359375,14.979616165161133,,,I,113019331870061
Raw,1682169921426,112983780000000,18,,-1366092155646026943,-0.8792020082473755,61.136721342336386,-5.94612723152631,17.23650000412034,44,6,0.0,16399,566725300030762,24,29.3,-264.3738098144531,1.8485559225082397,16,0.0,0.0,1561097980,,,,0,,5,0.1,25.0,-1551.1507568359375,14.979616165161133,,,I,113019331870061
Raw,1682169921426,112983780000000,18,,-1366092155646026943,-0.8792020082473755,61.136721342336386,-5.94612723152631,17.23650000412034,44,2,0.0,16399,566725305161071,14,34.6,-4.023227691650391,1.4866000413894653,16,0.0,0.0,1561097980,,,,0,,5,0.1,30.3,-1551.1507568359375,14.979616165161133,,,I,113019331870061
Raw,1682169921426,112983780000000,18,,-1366092155646026943,-0.8792020082473755,61.136721342336386,-5.94612723152631,17.23650000412034,44,4,0.0,23567,566739345806736,24,29.9,206.20428466796875,0.046391818672418594,16,0.0,0.0,1575420030,,,,0,,6,-0.68,25.599999999999998,-1471.1221923828125,14.607095718383789,,,C,113019331870061
Raw,1682169921426,112983780000000,18,,-1366092155646026943,-0.8792020082473755,61.136721342336386,-5.94612723152631,17.23650000412034,44,10,0.0,23567,566739342748393,27,28.5,-130.1770782470703,0.060191426426172256,16,0.0,0.0,1575420030,,,,0,,6,-0.68,24.2,-1471.1221923828125,14.607095718383789,,,C,113019331870061
Raw,1682169921426,112983780000000,18,,-1366092155646026943,-0.8792020082473755,61.136721342336386,-5.94612723152631,17.23650000412034,44,12,0.0,23567,566739340312311,61,22.9,-1.5699228048324585,0.999500036239624,16,0.0,0.0,1575420030,,,,0,,6,-0.68,18.599999999999998,-1471.1221923828125,14.607095718383789,,,C,113019331870061
Raw,1682169921426,112983780000000,18,,-1366092155646026943,-0.8792020082473755,61.136721342336386,-5.94612723152631,17.23650000412034,44,25,0.0,23567,566739336017331,61,22.7,196.60191345214844,0.999500036239624,16,0.0,0.0,1575420030,,,,0,,6,-0.68,18.4,-1471.1221923828125,14.607095718383789,,,C,113019331870061
Fix,GPS,12.9853086900,80.2393309800,-71.041015625,0.0,4.0178227,,1682169922000,0.840595,,113019905594852,6.866788
Status,1682169922000,55,0,1,2,1575420030,21.30,336.0,29.0,1,1,0,17.8
Status,1682169922000,55,1,1,10,1575420030,28.90,263.0,21.0,1,1,0,25.4
Status,1682169922000,55,2,1,13,1575420030,17.50,45.0,23.0,0,1,0,14.0
Status,1682169922000,55,3,1,15,1575420030,31.90,45.0,54.0,1,1,0,28.4
Status,1682169922000,55,4,1,18,1575420030,19.90,340.0,30.0,1,1,0,16.4
Status,1682169922000,55,5,1,23,1575420030,21.80,296.0,41.0,1,1,0,18.3
Status,1682169922000,55,6,1,24,1575420030,17.90,136.0,23.0,1,1,0,14.4
Status,1682169922000,55,7,1,29,1575420030,29.50,150.0,81.0,0,1,0,26.0
Status,1682169922000,55,8,1,5,1575420030,0.00,43.0,7.0,0,1,0,0.0
Status,1682169922000,55,9,1,11,1575420030,0.00,0.0,0.0,0,1,0,0.0
Status,1682169922000,55,10,1,12,1575420030,0.00,167.0,7.0,0,1,0,0.0
Status,1682169922000,55,11,1,25,1575420030,0.00,196.0,20.0,0,1,0,0.0
Status,1682169922000,55,12,1,26,1575420030,0.00,283.0,5.0,0,1,0,0.0
Status,1682169922000,55,13,1,32,1575420030,0.00,210.0,5.0,0,1,0,0.0
Status,1682169922000,55,14,4,195,1575420030,22.60,104.0,30.0,0,1,0,19.1
Status,1682169922000,55,15,2,128,1575420030,35.10,0.0,0.0,0,0,0,31.599998
Status,1682169922000,55,16,3,6,1599750020,17.40,224.0,32.0,0,1,0,13.4
Status,1682169922000,55,17,3,18,1600312450,22.30,117.0,22.0,1,1,0,18.3
Status,1682169922000,55,18,3,5,1602562560,32.90,340.0,70.0,1,1,0,28.900002
Status,1682169922000,55,19,3,19,1603687550,26.70,70.0,48.0,1,1,0,22.7
Status,1682169922000,55,20,3,4,1605374980,19.40,20.0,22.0,1,1,0,15.4
Status,1682169922000,55,21,3,9,1600875010,0.00,0.0,0.0,0,1,0,0.0
Status,1682169922000,55,22,3,20,1603124990,0.00,350.0,26.0,0,1,0,0.0
Status,1682169922000,55,23,5,22,1561097980,20.00,30.0,22.0,0,1,0,15.7
Status,1682169922000,55,24,5,21,1561097980,37.20,341.0,66.0,0,1,0,32.9
Status,1682169922000,55,25,5,16,1561097980,27.60,116.0,42.0,1,1,0,23.3
Status,1682169922000,55,26,5,14,1561097980,23.80,232.0,18.0,1,1,0,19.5
Status,1682169922000,55,27,5,13,1561097980,19.80,14.0,35.0,1,1,0,15.499999
Status,1682169922000,55,28,5,12,1561097980,26.60,6.0,61.0,1,1,0,22.3
Status,1682169922000,55,29,5,10,1561097980,25.60,175.0,39.0,1,1,0,21.3
Status,1682169922000,55,30,5,9,1561097980,25.00,145.0,38.0,1,1,0,20.7
Status,1682169922000,55,31,5,8,1561097980,15.50,27.0,28.0,1,1,0,11.2
